{
    "type": "FeatureCollection",
    "features": [{
            "type": "Feature",
            "geometry": {
                "type": "Point",
                "coordinates": [-8.1377926, 27.6712787]
            },
            "properties": {
                "NAME": "Tindouf",
                "PLACE": "town",
                "ADDR:CITY": "",
                "ADDR:HOUSE": "",
                "ADDR:FLATS": "",
                "ADDR:POSTC": ""
            }
        },
        {
            "type": "Feature",
            "geometry": {
                "type": "Point",
                "coordinates": [-8.0901297, 27.474081]
            },
            "properties": {
                "NAME": "Rabouni Refugee Camp",
                "PLACE": "hamlet",
                "ADDR:CITY": "",
                "ADDR:HOUSE": "",
                "ADDR:FLATS": "",
                "ADDR:POSTC": ""
            }
        },
        {
            "type": "Feature",
            "geometry": {
                "type": "Point",
                "coordinates": [-8.0338247, 27.7357272]
            },
            "properties": {
                "NAME": "Layoun Refugee Camp",
                "PLACE": "hamlet",
                "ADDR:CITY": "",
                "ADDR:HOUSE": "",
                "ADDR:FLATS": "",
                "ADDR:POSTC": ""
            }
        },
        {
            "type": "Feature",
            "geometry": {
                "type": "Point",
                "coordinates": [-8.0101354, 27.5141289]
            },
            "properties": {
                "NAME": "27 february Refugee Camp",
                "PLACE": "hamlet",
                "ADDR:CITY": "",
                "ADDR:HOUSE": "",
                "ADDR:FLATS": "",
                "ADDR:POSTC": ""
            }
        },
        {
            "type": "Feature",
            "geometry": {
                "type": "Point",
                "coordinates": [-7.8302343, 27.4920511]
            },
            "properties": {
                "NAME": "Smara refugee Camp",
                "PLACE": "hamlet",
                "ADDR:CITY": "",
                "ADDR:HOUSE": "",
                "ADDR:FLATS": "",
                "ADDR:POSTC": ""
            }
        },
        {
            "type": "Feature",
            "geometry": {
                "type": "Point",
                "coordinates": [-7.3326064, 29.911271]
            },
            "properties": {
                "NAME": "Village",
                "PLACE": "village",
                "ADDR:CITY": "",
                "ADDR:HOUSE": "",
                "ADDR:FLATS": "",
                "ADDR:POSTC": ""
            }
        },
        {
            "type": "Feature",
            "geometry": {
                "type": "Point",
                "coordinates": [-7.1676214, 26.8829529]
            },
            "properties": {
                "NAME": "Dakhla Refugee Camp",
                "PLACE": "hamlet",
                "ADDR:CITY": "",
                "ADDR:HOUSE": "",
                "ADDR:FLATS": "",
                "ADDR:POSTC": ""
            }
        },
        {
            "type": "Feature",
            "geometry": {
                "type": "Point",
                "coordinates": [-6.9804945, 28.6144725]
            },
            "properties": {
                "NAME": "Oum El Assel",
                "PLACE": "village",
                "ADDR:CITY": "",
                "ADDR:HOUSE": "",
                "ADDR:FLATS": "",
                "ADDR:POSTC": ""
            }
        },
        {
            "type": "Feature",
            "geometry": {
                "type": "Point",
                "coordinates": [-6.9073523, 30.5217164]
            },
            "properties": {
                "NAME": "",
                "PLACE": "hamlet",
                "ADDR:CITY": "",
                "ADDR:HOUSE": "",
                "ADDR:FLATS": "",
                "ADDR:POSTC": ""
            }
        },
        {
            "type": "Feature",
            "geometry": {
                "type": "Point",
                "coordinates": [-6.8778499, 30.0904402]
            },
            "properties": {
                "NAME": "Foum Zguid",
                "PLACE": "town",
                "ADDR:CITY": "",
                "ADDR:HOUSE": "",
                "ADDR:FLATS": "",
                "ADDR:POSTC": ""
            }
        },
        {
            "type": "Feature",
            "geometry": {
                "type": "Point",
                "coordinates": [-6.4924528, 30.4366834]
            },
            "properties": {
                "NAME": "Douissat (ruined)",
                "PLACE": "village",
                "ADDR:CITY": "",
                "ADDR:HOUSE": "",
                "ADDR:FLATS": "",
                "ADDR:POSTC": ""
            }
        },
        {
            "type": "Feature",
            "geometry": {
                "type": "Point",
                "coordinates": [-6.4504307, 30.6995666]
            },
            "properties": {
                "NAME": "Agdz",
                "PLACE": "town",
                "ADDR:CITY": "",
                "ADDR:HOUSE": "",
                "ADDR:FLATS": "",
                "ADDR:POSTC": ""
            }
        },
        {
            "type": "Feature",
            "geometry": {
                "type": "Point",
                "coordinates": [-6.4388996, 30.6858404]
            },
            "properties": {
                "NAME": "Transifte",
                "PLACE": "town",
                "ADDR:CITY": "",
                "ADDR:HOUSE": "",
                "ADDR:FLATS": "",
                "ADDR:POSTC": ""
            }
        },
        {
            "type": "Feature",
            "geometry": {
                "type": "Point",
                "coordinates": [-6.28862, 31.1284379]
            },
            "properties": {
                "NAME": "Taghzoute",
                "PLACE": "village",
                "ADDR:CITY": "",
                "ADDR:HOUSE": "",
                "ADDR:FLATS": "",
                "ADDR:POSTC": ""
            }
        },
        {
            "type": "Feature",
            "geometry": {
                "type": "Point",
                "coordinates": [-6.1721355, 31.3074523]
            },
            "properties": {
                "NAME": "Taberacht",
                "PLACE": "village",
                "ADDR:CITY": "",
                "ADDR:HOUSE": "",
                "ADDR:FLATS": "",
                "ADDR:POSTC": ""
            }
        },
        {
            "type": "Feature",
            "geometry": {
                "type": "Point",
                "coordinates": [-6.1420001, 30.6646087]
            },
            "properties": {
                "NAME": "Tamezmoute",
                "PLACE": "village",
                "ADDR:CITY": "",
                "ADDR:HOUSE": "",
                "ADDR:FLATS": "",
                "ADDR:POSTC": ""
            }
        },
        {
            "type": "Feature",
            "geometry": {
                "type": "Point",
                "coordinates": [-6.1303377, 31.236761]
            },
            "properties": {
                "NAME": "Total",
                "PLACE": "",
                "ADDR:CITY": "El Kelaa M'Gouna",
                "ADDR:HOUSE": "",
                "ADDR:FLATS": "",
                "ADDR:POSTC": ""
            }
        },
        {
            "type": "Feature",
            "geometry": {
                "type": "Point",
                "coordinates": [-6.1264394, 31.2403858]
            },
            "properties": {
                "NAME": "‏لقلعَة مگُونَة El-Kelâa M´Gouna",
                "PLACE": "town",
                "ADDR:CITY": "",
                "ADDR:HOUSE": "",
                "ADDR:FLATS": "",
                "ADDR:POSTC": ""
            }
        },
        {
            "type": "Feature",
            "geometry": {
                "type": "Point",
                "coordinates": [-6.1211215, 29.8795741]
            },
            "properties": {
                "NAME": "Oase Sacree",
                "PLACE": "village",
                "ADDR:CITY": "",
                "ADDR:HOUSE": "",
                "ADDR:FLATS": "",
                "ADDR:POSTC": ""
            }
        },
        {
            "type": "Feature",
            "geometry": {
                "type": "Point",
                "coordinates": [-6.1159887, 31.2421472]
            },
            "properties": {
                "NAME": "Afriquia",
                "PLACE": "",
                "ADDR:CITY": "El-Kelâa M´Gouna",
                "ADDR:HOUSE": "",
                "ADDR:FLATS": "",
                "ADDR:POSTC": ""
            }
        },
        {
            "type": "Feature",
            "geometry": {
                "type": "Point",
                "coordinates": [-6.1022093, 30.5041429]
            },
            "properties": {
                "NAME": "TOTAL",
                "PLACE": "",
                "ADDR:CITY": "Tifouline",
                "ADDR:HOUSE": "",
                "ADDR:FLATS": "",
                "ADDR:POSTC": ""
            }
        },
        {
            "type": "Feature",
            "geometry": {
                "type": "Point",
                "coordinates": [-6.100842, 30.5051133]
            },
            "properties": {
                "NAME": "Tin-Zouline",
                "PLACE": "village",
                "ADDR:CITY": "",
                "ADDR:HOUSE": "",
                "ADDR:FLATS": "",
                "ADDR:POSTC": ""
            }
        },
        {
            "type": "Feature",
            "geometry": {
                "type": "Point",
                "coordinates": [-6.041532, 31.0391947]
            },
            "properties": {
                "NAME": "",
                "PLACE": "village",
                "ADDR:CITY": "",
                "ADDR:HOUSE": "",
                "ADDR:FLATS": "",
                "ADDR:POSTC": ""
            }
        },
        {
            "type": "Feature",
            "geometry": {
                "type": "Point",
                "coordinates": [-6.0124104, 31.4313849]
            },
            "properties": {
                "NAME": "Ait Ben Ali",
                "PLACE": "village",
                "ADDR:CITY": "",
                "ADDR:HOUSE": "",
                "ADDR:FLATS": "",
                "ADDR:POSTC": ""
            }
        },
        {
            "type": "Feature",
            "geometry": {
                "type": "Point",
                "coordinates": [-6.0009827, 31.358719]
            },
            "properties": {
                "NAME": "Total",
                "PLACE": "",
                "ADDR:CITY": "Boumalne du Dades",
                "ADDR:HOUSE": "",
                "ADDR:FLATS": "",
                "ADDR:POSTC": ""
            }
        },
        {
            "type": "Feature",
            "geometry": {
                "type": "Point",
                "coordinates": [-5.9884207, 31.4048955]
            },
            "properties": {
                "NAME": "",
                "PLACE": "village",
                "ADDR:CITY": "",
                "ADDR:HOUSE": "",
                "ADDR:FLATS": "",
                "ADDR:POSTC": ""
            }
        },
        {
            "type": "Feature",
            "geometry": {
                "type": "Point",
                "coordinates": [-5.9864328, 31.4398256]
            },
            "properties": {
                "NAME": "Tamellat",
                "PLACE": "village",
                "ADDR:CITY": "",
                "ADDR:HOUSE": "",
                "ADDR:FLATS": "",
                "ADDR:POSTC": ""
            }
        },
        {
            "type": "Feature",
            "geometry": {
                "type": "Point",
                "coordinates": [-5.9860204, 31.3741453]
            },
            "properties": {
                "NAME": "Boumalne-du-Dades",
                "PLACE": "town",
                "ADDR:CITY": "",
                "ADDR:HOUSE": "",
                "ADDR:FLATS": "",
                "ADDR:POSTC": ""
            }
        },
        {
            "type": "Feature",
            "geometry": {
                "type": "Point",
                "coordinates": [-5.9817568, 31.3677741]
            },
            "properties": {
                "NAME": "Shell",
                "PLACE": "",
                "ADDR:CITY": "Boumalne du Dades",
                "ADDR:HOUSE": "",
                "ADDR:FLATS": "",
                "ADDR:POSTC": ""
            }
        },
        {
            "type": "Feature",
            "geometry": {
                "type": "Point",
                "coordinates": [-5.9713533, 31.4596806]
            },
            "properties": {
                "NAME": "Ait Arbi",
                "PLACE": "village",
                "ADDR:CITY": "",
                "ADDR:HOUSE": "",
                "ADDR:FLATS": "",
                "ADDR:POSTC": ""
            }
        },
        {
            "type": "Feature",
            "geometry": {
                "type": "Point",
                "coordinates": [-5.9692735, 31.3666839]
            },
            "properties": {
                "NAME": "INOV",
                "PLACE": "",
                "ADDR:CITY": "Boumalne du Dades",
                "ADDR:HOUSE": "",
                "ADDR:FLATS": "",
                "ADDR:POSTC": ""
            }
        },
        {
            "type": "Feature",
            "geometry": {
                "type": "Point",
                "coordinates": [-5.95435, 31.4890522]
            },
            "properties": {
                "NAME": "Aït Ali",
                "PLACE": "village",
                "ADDR:CITY": "",
                "ADDR:HOUSE": "",
                "ADDR:FLATS": "",
                "ADDR:POSTC": ""
            }
        },
        {
            "type": "Feature",
            "geometry": {
                "type": "Point",
                "coordinates": [-5.942389, 31.5100292]
            },
            "properties": {
                "NAME": "Ait Oudinar",
                "PLACE": "village",
                "ADDR:CITY": "",
                "ADDR:HOUSE": "",
                "ADDR:FLATS": "",
                "ADDR:POSTC": ""
            }
        },
        {
            "type": "Feature",
            "geometry": {
                "type": "Point",
                "coordinates": [-5.9308145, 31.5431689]
            },
            "properties": {
                "NAME": "Tarhia n´Ougoundiz",
                "PLACE": "village",
                "ADDR:CITY": "",
                "ADDR:HOUSE": "",
                "ADDR:FLATS": "",
                "ADDR:POSTC": ""
            }
        },
        {
            "type": "Feature",
            "geometry": {
                "type": "Point",
                "coordinates": [-5.9258363, 31.5185877]
            },
            "properties": {
                "NAME": "Izerouale",
                "PLACE": "village",
                "ADDR:CITY": "",
                "ADDR:HOUSE": "",
                "ADDR:FLATS": "",
                "ADDR:POSTC": ""
            }
        },
        {
            "type": "Feature",
            "geometry": {
                "type": "Point",
                "coordinates": [-5.903712, 31.5784]
            },
            "properties": {
                "NAME": "Imdiazen",
                "PLACE": "village",
                "ADDR:CITY": "",
                "ADDR:HOUSE": "",
                "ADDR:FLATS": "",
                "ADDR:POSTC": ""
            }
        },
        {
            "type": "Feature",
            "geometry": {
                "type": "Point",
                "coordinates": [-5.8950967, 31.5738344]
            },
            "properties": {
                "NAME": "",
                "PLACE": "village",
                "ADDR:CITY": "",
                "ADDR:HOUSE": "",
                "ADDR:FLATS": "",
                "ADDR:POSTC": ""
            }
        },
        {
            "type": "Feature",
            "geometry": {
                "type": "Point",
                "coordinates": [-5.8899554, 31.5804923]
            },
            "properties": {
                "NAME": "Imdiazen",
                "PLACE": "village",
                "ADDR:CITY": "",
                "ADDR:HOUSE": "",
                "ADDR:FLATS": "",
                "ADDR:POSTC": ""
            }
        },
        {
            "type": "Feature",
            "geometry": {
                "type": "Point",
                "coordinates": [-5.8886087, 30.8608036]
            },
            "properties": {
                "NAME": "Afriquia",
                "PLACE": "",
                "ADDR:CITY": "N'Kob",
                "ADDR:HOUSE": "",
                "ADDR:FLATS": "",
                "ADDR:POSTC": ""
            }
        },
        {
            "type": "Feature",
            "geometry": {
                "type": "Point",
                "coordinates": [-5.8860309, 31.5880515]
            },
            "properties": {
                "NAME": "Ait Icho ou Ali",
                "PLACE": "village",
                "ADDR:CITY": "",
                "ADDR:HOUSE": "",
                "ADDR:FLATS": "",
                "ADDR:POSTC": ""
            }
        },
        {
            "type": "Feature",
            "geometry": {
                "type": "Point",
                "coordinates": [-5.8812344, 29.6597034]
            },
            "properties": {
                "NAME": "Zmila",
                "PLACE": "locality",
                "ADDR:CITY": "",
                "ADDR:HOUSE": "",
                "ADDR:FLATS": "",
                "ADDR:POSTC": ""
            }
        },
        {
            "type": "Feature",
            "geometry": {
                "type": "Point",
                "coordinates": [-5.8676431, 31.6003538]
            },
            "properties": {
                "NAME": "Ait Toukhsine",
                "PLACE": "village",
                "ADDR:CITY": "",
                "ADDR:HOUSE": "",
                "ADDR:FLATS": "",
                "ADDR:POSTC": ""
            }
        },
        {
            "type": "Feature",
            "geometry": {
                "type": "Point",
                "coordinates": [-5.8614466, 30.8716271]
            },
            "properties": {
                "NAME": "Nkob النقوب",
                "PLACE": "town",
                "ADDR:CITY": "",
                "ADDR:HOUSE": "",
                "ADDR:FLATS": "",
                "ADDR:POSTC": ""
            }
        },
        {
            "type": "Feature",
            "geometry": {
                "type": "Point",
                "coordinates": [-5.8603451, 30.3980612]
            },
            "properties": {
                "NAME": "Ternata",
                "PLACE": "hamlet",
                "ADDR:CITY": "",
                "ADDR:HOUSE": "",
                "ADDR:FLATS": "",
                "ADDR:POSTC": ""
            }
        },
        {
            "type": "Feature",
            "geometry": {
                "type": "Point",
                "coordinates": [-5.857944, 31.254485]
            },
            "properties": {
                "NAME": "Tagdilt",
                "PLACE": "village",
                "ADDR:CITY": "",
                "ADDR:HOUSE": "",
                "ADDR:FLATS": "",
                "ADDR:POSTC": ""
            }
        },
        {
            "type": "Feature",
            "geometry": {
                "type": "Point",
                "coordinates": [-5.8574858, 28.8589155]
            },
            "properties": {
                "NAME": "Tinfouchy",
                "PLACE": "village",
                "ADDR:CITY": "",
                "ADDR:HOUSE": "",
                "ADDR:FLATS": "",
                "ADDR:POSTC": ""
            }
        },
        {
            "type": "Feature",
            "geometry": {
                "type": "Point",
                "coordinates": [-5.8451857, 30.3773668]
            },
            "properties": {
                "NAME": "Petrom",
                "PLACE": "",
                "ADDR:CITY": "Zagora",
                "ADDR:HOUSE": "",
                "ADDR:FLATS": "",
                "ADDR:POSTC": ""
            }
        },
        {
            "type": "Feature",
            "geometry": {
                "type": "Point",
                "coordinates": [-5.8406662, 30.324246]
            },
            "properties": {
                "NAME": "Hotel La Palmeraie",
                "PLACE": "",
                "ADDR:CITY": "Zagora",
                "ADDR:HOUSE": "B.P. 40",
                "ADDR:FLATS": "",
                "ADDR:POSTC": "49500"
            }
        },
        {
            "type": "Feature",
            "geometry": {
                "type": "Point",
                "coordinates": [-5.8403132, 30.3539667]
            },
            "properties": {
                "NAME": "Afriquia",
                "PLACE": "",
                "ADDR:CITY": "Zagora",
                "ADDR:HOUSE": "",
                "ADDR:FLATS": "",
                "ADDR:POSTC": ""
            }
        },
        {
            "type": "Feature",
            "geometry": {
                "type": "Point",
                "coordinates": [-5.8400256, 31.3454382]
            },
            "properties": {
                "NAME": "Kasbah ou Boulmane",
                "PLACE": "village",
                "ADDR:CITY": "",
                "ADDR:HOUSE": "",
                "ADDR:FLATS": "",
                "ADDR:POSTC": ""
            }
        },
        {
            "type": "Feature",
            "geometry": {
                "type": "Point",
                "coordinates": [-5.8388606, 30.347626]
            },
            "properties": {
                "NAME": "Shell",
                "PLACE": "",
                "ADDR:CITY": "Zagora",
                "ADDR:HOUSE": "",
                "ADDR:FLATS": "",
                "ADDR:POSTC": ""
            }
        },
        {
            "type": "Feature",
            "geometry": {
                "type": "Point",
                "coordinates": [-5.8382809, 30.3286409]
            },
            "properties": {
                "NAME": "CMH",
                "PLACE": "",
                "ADDR:CITY": "Zagora",
                "ADDR:HOUSE": "",
                "ADDR:FLATS": "",
                "ADDR:POSTC": ""
            }
        },
        {
            "type": "Feature",
            "geometry": {
                "type": "Point",
                "coordinates": [-5.8379071, 30.3464607]
            },
            "properties": {
                "NAME": "Total",
                "PLACE": "",
                "ADDR:CITY": "Zagora",
                "ADDR:HOUSE": "",
                "ADDR:FLATS": "",
                "ADDR:POSTC": ""
            }
        },
        {
            "type": "Feature",
            "geometry": {
                "type": "Point",
                "coordinates": [-5.8378855, 30.3339993]
            },
            "properties": {
                "NAME": "Hotel Riad Salam",
                "PLACE": "",
                "ADDR:CITY": "Zagora",
                "ADDR:HOUSE": "",
                "ADDR:FLATS": "",
                "ADDR:POSTC": ""
            }
        },
        {
            "type": "Feature",
            "geometry": {
                "type": "Point",
                "coordinates": [-5.8373881, 30.3259435]
            },
            "properties": {
                "NAME": "Zagora",
                "PLACE": "town",
                "ADDR:CITY": "",
                "ADDR:HOUSE": "",
                "ADDR:FLATS": "",
                "ADDR:POSTC": ""
            }
        },
        {
            "type": "Feature",
            "geometry": {
                "type": "Point",
                "coordinates": [-5.8325372, 31.2271061]
            },
            "properties": {
                "NAME": "Taghssa",
                "PLACE": "village",
                "ADDR:CITY": "",
                "ADDR:HOUSE": "",
                "ADDR:FLATS": "",
                "ADDR:POSTC": ""
            }
        },
        {
            "type": "Feature",
            "geometry": {
                "type": "Point",
                "coordinates": [-5.828696, 31.6441859]
            },
            "properties": {
                "NAME": "Amouguir",
                "PLACE": "village",
                "ADDR:CITY": "",
                "ADDR:HOUSE": "",
                "ADDR:FLATS": "",
                "ADDR:POSTC": ""
            }
        },
        {
            "type": "Feature",
            "geometry": {
                "type": "Point",
                "coordinates": [-5.7930723, 30.8555476]
            },
            "properties": {
                "NAME": "Ait Massoud",
                "PLACE": "village",
                "ADDR:CITY": "",
                "ADDR:HOUSE": "",
                "ADDR:FLATS": "",
                "ADDR:POSTC": ""
            }
        },
        {
            "type": "Feature",
            "geometry": {
                "type": "Point",
                "coordinates": [-5.7924754, 31.3718237]
            },
            "properties": {
                "NAME": "Ait Brahim",
                "PLACE": "village",
                "ADDR:CITY": "",
                "ADDR:HOUSE": "",
                "ADDR:FLATS": "",
                "ADDR:POSTC": ""
            }
        },
        {
            "type": "Feature",
            "geometry": {
                "type": "Point",
                "coordinates": [-5.7792575, 31.3675732]
            },
            "properties": {
                "NAME": "Tissilt",
                "PLACE": "village",
                "ADDR:CITY": "",
                "ADDR:HOUSE": "",
                "ADDR:FLATS": "",
                "ADDR:POSTC": ""
            }
        },
        {
            "type": "Feature",
            "geometry": {
                "type": "Point",
                "coordinates": [-5.737016, 29.808015]
            },
            "properties": {
                "NAME": "Ksar M'Hamid",
                "PLACE": "village",
                "ADDR:CITY": "",
                "ADDR:HOUSE": "",
                "ADDR:FLATS": "",
                "ADDR:POSTC": ""
            }
        },
        {
            "type": "Feature",
            "geometry": {
                "type": "Point",
                "coordinates": [-5.7229095, 29.8290602]
            },
            "properties": {
                "NAME": "Mhamid",
                "PLACE": "village",
                "ADDR:CITY": "",
                "ADDR:HOUSE": "",
                "ADDR:FLATS": "",
                "ADDR:POSTC": ""
            }
        },
        {
            "type": "Feature",
            "geometry": {
                "type": "Point",
                "coordinates": [-5.6796378, 30.259915]
            },
            "properties": {
                "NAME": "Tamegroute",
                "PLACE": "village",
                "ADDR:CITY": "",
                "ADDR:HOUSE": "",
                "ADDR:FLATS": "",
                "ADDR:POSTC": ""
            }
        },
        {
            "type": "Feature",
            "geometry": {
                "type": "Point",
                "coordinates": [-5.6547583, 29.8303147]
            },
            "properties": {
                "NAME": "Ouled Driss",
                "PLACE": "village",
                "ADDR:CITY": "",
                "ADDR:HOUSE": "",
                "ADDR:FLATS": "",
                "ADDR:POSTC": ""
            }
        },
        {
            "type": "Feature",
            "geometry": {
                "type": "Point",
                "coordinates": [-5.5864283, 31.5786245]
            },
            "properties": {
                "NAME": "",
                "PLACE": "hamlet",
                "ADDR:CITY": "",
                "ADDR:HOUSE": "",
                "ADDR:FLATS": "",
                "ADDR:POSTC": ""
            }
        },
        {
            "type": "Feature",
            "geometry": {
                "type": "Point",
                "coordinates": [-5.5827052, 31.604062]
            },
            "properties": {
                "NAME": "Tisgui",
                "PLACE": "village",
                "ADDR:CITY": "",
                "ADDR:HOUSE": "",
                "ADDR:FLATS": "",
                "ADDR:POSTC": ""
            }
        },
        {
            "type": "Feature",
            "geometry": {
                "type": "Point",
                "coordinates": [-5.5787139, 29.9734067]
            },
            "properties": {
                "NAME": "Tagounite",
                "PLACE": "village",
                "ADDR:CITY": "",
                "ADDR:HOUSE": "",
                "ADDR:FLATS": "",
                "ADDR:POSTC": ""
            }
        },
        {
            "type": "Feature",
            "geometry": {
                "type": "Point",
                "coordinates": [-5.565693, 30.7813296]
            },
            "properties": {
                "NAME": "Tazzarine",
                "PLACE": "village",
                "ADDR:CITY": "",
                "ADDR:HOUSE": "",
                "ADDR:FLATS": "",
                "ADDR:POSTC": ""
            }
        },
        {
            "type": "Feature",
            "geometry": {
                "type": "Point",
                "coordinates": [-5.5636461, 30.7822284]
            },
            "properties": {
                "NAME": "",
                "PLACE": "",
                "ADDR:CITY": "Tazzarine",
                "ADDR:HOUSE": "",
                "ADDR:FLATS": "",
                "ADDR:POSTC": ""
            }
        },
        {
            "type": "Feature",
            "geometry": {
                "type": "Point",
                "coordinates": [-5.5635892, 30.7822515]
            },
            "properties": {
                "NAME": "ZIZ",
                "PLACE": "",
                "ADDR:CITY": "Tazzarine",
                "ADDR:HOUSE": "",
                "ADDR:FLATS": "",
                "ADDR:POSTC": ""
            }
        },
        {
            "type": "Feature",
            "geometry": {
                "type": "Point",
                "coordinates": [-5.5372256, 31.6792961]
            },
            "properties": {
                "NAME": "Tamtattouchte",
                "PLACE": "village",
                "ADDR:CITY": "",
                "ADDR:HOUSE": "",
                "ADDR:FLATS": "",
                "ADDR:POSTC": ""
            }
        },
        {
            "type": "Feature",
            "geometry": {
                "type": "Point",
                "coordinates": [-5.5320295, 31.5204793]
            },
            "properties": {
                "NAME": "Tinghir   تنغير",
                "PLACE": "village",
                "ADDR:CITY": "",
                "ADDR:HOUSE": "",
                "ADDR:FLATS": "",
                "ADDR:POSTC": ""
            }
        },
        {
            "type": "Feature",
            "geometry": {
                "type": "Point",
                "coordinates": [-5.5088357, 30.8377182]
            },
            "properties": {
                "NAME": "Oungalute",
                "PLACE": "village",
                "ADDR:CITY": "",
                "ADDR:HOUSE": "",
                "ADDR:FLATS": "",
                "ADDR:POSTC": ""
            }
        },
        {
            "type": "Feature",
            "geometry": {
                "type": "Point",
                "coordinates": [-5.480395, 31.8341913]
            },
            "properties": {
                "NAME": "Toumlilane",
                "PLACE": "village",
                "ADDR:CITY": "",
                "ADDR:HOUSE": "",
                "ADDR:FLATS": "",
                "ADDR:POSTC": ""
            }
        },
        {
            "type": "Feature",
            "geometry": {
                "type": "Point",
                "coordinates": [-5.4768231, 31.8151793]
            },
            "properties": {
                "NAME": "Taadet",
                "PLACE": "village",
                "ADDR:CITY": "",
                "ADDR:HOUSE": "",
                "ADDR:FLATS": "",
                "ADDR:POSTC": ""
            }
        },
        {
            "type": "Feature",
            "geometry": {
                "type": "Point",
                "coordinates": [-5.461116, 31.7892838]
            },
            "properties": {
                "NAME": "Ikedmane",
                "PLACE": "village",
                "ADDR:CITY": "",
                "ADDR:HOUSE": "",
                "ADDR:FLATS": "",
                "ADDR:POSTC": ""
            }
        },
        {
            "type": "Feature",
            "geometry": {
                "type": "Point",
                "coordinates": [-5.4375555, 31.7839214]
            },
            "properties": {
                "NAME": "Tizzouggouarine",
                "PLACE": "village",
                "ADDR:CITY": "",
                "ADDR:HOUSE": "",
                "ADDR:FLATS": "",
                "ADDR:POSTC": ""
            }
        },
        {
            "type": "Feature",
            "geometry": {
                "type": "Point",
                "coordinates": [-5.407429, 31.8108395]
            },
            "properties": {
                "NAME": "Assimeg",
                "PLACE": "village",
                "ADDR:CITY": "",
                "ADDR:HOUSE": "",
                "ADDR:FLATS": "",
                "ADDR:POSTC": ""
            }
        },
        {
            "type": "Feature",
            "geometry": {
                "type": "Point",
                "coordinates": [-5.4049838, 30.6158614]
            },
            "properties": {
                "NAME": "",
                "PLACE": "village",
                "ADDR:CITY": "",
                "ADDR:HOUSE": "",
                "ADDR:FLATS": "",
                "ADDR:POSTC": ""
            }
        },
        {
            "type": "Feature",
            "geometry": {
                "type": "Point",
                "coordinates": [-5.4012591, 32.0279541]
            },
            "properties": {
                "NAME": "Iahouna n'Ourhbalou",
                "PLACE": "village",
                "ADDR:CITY": "",
                "ADDR:HOUSE": "",
                "ADDR:FLATS": "",
                "ADDR:POSTC": ""
            }
        },
        {
            "type": "Feature",
            "geometry": {
                "type": "Point",
                "coordinates": [-5.4002292, 31.8191686]
            },
            "properties": {
                "NAME": "Tiidrine",
                "PLACE": "village",
                "ADDR:CITY": "",
                "ADDR:HOUSE": "",
                "ADDR:FLATS": "",
                "ADDR:POSTC": ""
            }
        },
        {
            "type": "Feature",
            "geometry": {
                "type": "Point",
                "coordinates": [-5.3573138, 31.8487012]
            },
            "properties": {
                "NAME": "Touzarh",
                "PLACE": "village",
                "ADDR:CITY": "",
                "ADDR:HOUSE": "",
                "ADDR:FLATS": "",
                "ADDR:POSTC": ""
            }
        },
        {
            "type": "Feature",
            "geometry": {
                "type": "Point",
                "coordinates": [-5.2953085, 30.9520665]
            },
            "properties": {
                "NAME": "Badou",
                "PLACE": "village",
                "ADDR:CITY": "",
                "ADDR:HOUSE": "",
                "ADDR:FLATS": "",
                "ADDR:POSTC": ""
            }
        },
        {
            "type": "Feature",
            "geometry": {
                "type": "Point",
                "coordinates": [-5.265859, 30.9958173]
            },
            "properties": {
                "NAME": "Taichoute",
                "PLACE": "village",
                "ADDR:CITY": "",
                "ADDR:HOUSE": "",
                "ADDR:FLATS": "",
                "ADDR:POSTC": ""
            }
        },
        {
            "type": "Feature",
            "geometry": {
                "type": "Point",
                "coordinates": [-5.2592311, 31.040032]
            },
            "properties": {
                "NAME": "Tazlarte",
                "PLACE": "village",
                "ADDR:CITY": "",
                "ADDR:HOUSE": "",
                "ADDR:FLATS": "",
                "ADDR:POSTC": ""
            }
        },
        {
            "type": "Feature",
            "geometry": {
                "type": "Point",
                "coordinates": [-5.2194697, 32.1085437]
            },
            "properties": {
                "NAME": "Ahanou M'Bark",
                "PLACE": "village",
                "ADDR:CITY": "",
                "ADDR:HOUSE": "",
                "ADDR:FLATS": "",
                "ADDR:POSTC": ""
            }
        },
        {
            "type": "Feature",
            "geometry": {
                "type": "Point",
                "coordinates": [-5.217476, 31.5204793]
            },
            "properties": {
                "NAME": "Azag N'Ouchen",
                "PLACE": "hamlet",
                "ADDR:CITY": "",
                "ADDR:HOUSE": "",
                "ADDR:FLATS": "",
                "ADDR:POSTC": ""
            }
        },
        {
            "type": "Feature",
            "geometry": {
                "type": "Point",
                "coordinates": [-5.1724451, 31.1126658]
            },
            "properties": {
                "NAME": "ZIZ",
                "PLACE": "",
                "ADDR:CITY": "Alnif",
                "ADDR:HOUSE": "",
                "ADDR:FLATS": "",
                "ADDR:POSTC": ""
            }
        },
        {
            "type": "Feature",
            "geometry": {
                "type": "Point",
                "coordinates": [-5.1691761, 31.1152227]
            },
            "properties": {
                "NAME": "Alnif",
                "PLACE": "village",
                "ADDR:CITY": "",
                "ADDR:HOUSE": "",
                "ADDR:FLATS": "",
                "ADDR:POSTC": ""
            }
        },
        {
            "type": "Feature",
            "geometry": {
                "type": "Point",
                "coordinates": [-5.1617939, 31.1163049]
            },
            "properties": {
                "NAME": "Afriquia",
                "PLACE": "",
                "ADDR:CITY": "Alnif",
                "ADDR:HOUSE": "",
                "ADDR:FLATS": "",
                "ADDR:POSTC": ""
            }
        },
        {
            "type": "Feature",
            "geometry": {
                "type": "Point",
                "coordinates": [-5.1542384, 32.0900755]
            },
            "properties": {
                "NAME": "Amane Ziduine",
                "PLACE": "village",
                "ADDR:CITY": "",
                "ADDR:HOUSE": "",
                "ADDR:FLATS": "",
                "ADDR:POSTC": ""
            }
        },
        {
            "type": "Feature",
            "geometry": {
                "type": "Point",
                "coordinates": [-5.0972612, 31.494789]
            },
            "properties": {
                "NAME": "Cafe Restaurant Itran",
                "PLACE": "",
                "ADDR:CITY": "Tinejdad",
                "ADDR:HOUSE": "",
                "ADDR:FLATS": "",
                "ADDR:POSTC": ""
            }
        },
        {
            "type": "Feature",
            "geometry": {
                "type": "Point",
                "coordinates": [-5.097101, 31.4948324]
            },
            "properties": {
                "NAME": "Petrom",
                "PLACE": "",
                "ADDR:CITY": "Tinejdad",
                "ADDR:HOUSE": "",
                "ADDR:FLATS": "",
                "ADDR:POSTC": ""
            }
        },
        {
            "type": "Feature",
            "geometry": {
                "type": "Point",
                "coordinates": [-5.0853508, 31.4940787]
            },
            "properties": {
                "NAME": "Musee Des Oasis (Ksar El Khorbat)",
                "PLACE": "",
                "ADDR:CITY": "Tinejdad",
                "ADDR:HOUSE": "",
                "ADDR:FLATS": "",
                "ADDR:POSTC": ""
            }
        },
        {
            "type": "Feature",
            "geometry": {
                "type": "Point",
                "coordinates": [-5.0740801, 31.4988766]
            },
            "properties": {
                "NAME": "Panorama Cafe Restaurant",
                "PLACE": "",
                "ADDR:CITY": "Tinejdad",
                "ADDR:HOUSE": "",
                "ADDR:FLATS": "",
                "ADDR:POSTC": ""
            }
        },
        {
            "type": "Feature",
            "geometry": {
                "type": "Point",
                "coordinates": [-5.0653151, 31.5005337]
            },
            "properties": {
                "NAME": "Mosquée",
                "PLACE": "",
                "ADDR:CITY": "Tinejdad",
                "ADDR:HOUSE": "",
                "ADDR:FLATS": "",
                "ADDR:POSTC": ""
            }
        },
        {
            "type": "Feature",
            "geometry": {
                "type": "Point",
                "coordinates": [-5.0606795, 31.5011438]
            },
            "properties": {
                "NAME": "Shell",
                "PLACE": "",
                "ADDR:CITY": "Tinejdad",
                "ADDR:HOUSE": "",
                "ADDR:FLATS": "",
                "ADDR:POSTC": ""
            }
        },
        {
            "type": "Feature",
            "geometry": {
                "type": "Point",
                "coordinates": [-5.03382, 31.5102014]
            },
            "properties": {
                "NAME": "Tinejdad",
                "PLACE": "village",
                "ADDR:CITY": "",
                "ADDR:HOUSE": "",
                "ADDR:FLATS": "",
                "ADDR:POSTC": ""
            }
        },
        {
            "type": "Feature",
            "geometry": {
                "type": "Point",
                "coordinates": [-5.0321022, 31.5096082]
            },
            "properties": {
                "NAME": "Terrasse Ferila",
                "PLACE": "",
                "ADDR:CITY": "Tinejdad",
                "ADDR:HOUSE": "",
                "ADDR:FLATS": "",
                "ADDR:POSTC": ""
            }
        },
        {
            "type": "Feature",
            "geometry": {
                "type": "Point",
                "coordinates": [-5.0313106, 31.5098234]
            },
            "properties": {
                "NAME": "Cafe Restaurant Riad",
                "PLACE": "",
                "ADDR:CITY": "Tinejdad",
                "ADDR:HOUSE": "",
                "ADDR:FLATS": "",
                "ADDR:POSTC": ""
            }
        },
        {
            "type": "Feature",
            "geometry": {
                "type": "Point",
                "coordinates": [-5.0304257, 31.5100916]
            },
            "properties": {
                "NAME": "Banque Populaire",
                "PLACE": "",
                "ADDR:CITY": "Tinejdad",
                "ADDR:HOUSE": "",
                "ADDR:FLATS": "",
                "ADDR:POSTC": ""
            }
        },
        {
            "type": "Feature",
            "geometry": {
                "type": "Point",
                "coordinates": [-5.0295511, 31.5100886]
            },
            "properties": {
                "NAME": "Total",
                "PLACE": "",
                "ADDR:CITY": "Tinejdad",
                "ADDR:HOUSE": "",
                "ADDR:FLATS": "",
                "ADDR:POSTC": ""
            }
        },
        {
            "type": "Feature",
            "geometry": {
                "type": "Point",
                "coordinates": [-5.0163011, 31.5151057]
            },
            "properties": {
                "NAME": "Afriquia",
                "PLACE": "",
                "ADDR:CITY": "Tinejdad",
                "ADDR:HOUSE": "",
                "ADDR:FLATS": "",
                "ADDR:POSTC": ""
            }
        },
        {
            "type": "Feature",
            "geometry": {
                "type": "Point",
                "coordinates": [-4.9532616, 31.6926267]
            },
            "properties": {
                "NAME": "Goulmima",
                "PLACE": "town",
                "ADDR:CITY": "",
                "ADDR:HOUSE": "",
                "ADDR:FLATS": "",
                "ADDR:POSTC": ""
            }
        },
        {
            "type": "Feature",
            "geometry": {
                "type": "Point",
                "coordinates": [-4.9015693, 31.5522691]
            },
            "properties": {
                "NAME": "Ksarigli",
                "PLACE": "village",
                "ADDR:CITY": "",
                "ADDR:HOUSE": "",
                "ADDR:FLATS": "",
                "ADDR:POSTC": ""
            }
        },
        {
            "type": "Feature",
            "geometry": {
                "type": "Point",
                "coordinates": [-4.8279573, 31.2171008]
            },
            "properties": {
                "NAME": "M'Cissi",
                "PLACE": "village",
                "ADDR:CITY": "",
                "ADDR:HOUSE": "",
                "ADDR:FLATS": "",
                "ADDR:POSTC": ""
            }
        },
        {
            "type": "Feature",
            "geometry": {
                "type": "Point",
                "coordinates": [-4.8241478, 31.2142559]
            },
            "properties": {
                "NAME": "ZIZ",
                "PLACE": "",
                "ADDR:CITY": "M'Cissi",
                "ADDR:HOUSE": "",
                "ADDR:FLATS": "",
                "ADDR:POSTC": ""
            }
        },
        {
            "type": "Feature",
            "geometry": {
                "type": "Point",
                "coordinates": [-4.7431638, 32.6837515]
            },
            "properties": {
                "NAME": "",
                "PLACE": "",
                "ADDR:CITY": "Midelt",
                "ADDR:HOUSE": "",
                "ADDR:FLATS": "",
                "ADDR:POSTC": ""
            }
        },
        {
            "type": "Feature",
            "geometry": {
                "type": "Point",
                "coordinates": [-4.7391324, 32.6818494]
            },
            "properties": {
                "NAME": "Midelt / ميدلت",
                "PLACE": "town",
                "ADDR:CITY": "",
                "ADDR:HOUSE": "",
                "ADDR:FLATS": "",
                "ADDR:POSTC": ""
            }
        },
        {
            "type": "Feature",
            "geometry": {
                "type": "Point",
                "coordinates": [-4.7196401, 32.6808515]
            },
            "properties": {
                "NAME": "",
                "PLACE": "",
                "ADDR:CITY": "Midelt",
                "ADDR:HOUSE": "",
                "ADDR:FLATS": "",
                "ADDR:POSTC": ""
            }
        },
        {
            "type": "Feature",
            "geometry": {
                "type": "Point",
                "coordinates": [-4.7132991, 32.6815624]
            },
            "properties": {
                "NAME": "Hotel Kasbah Asmaa",
                "PLACE": "",
                "ADDR:CITY": "Midelt",
                "ADDR:HOUSE": "km 3 dir. Errachidia",
                "ADDR:FLATS": "",
                "ADDR:POSTC": ""
            }
        },
        {
            "type": "Feature",
            "geometry": {
                "type": "Point",
                "coordinates": [-4.7115412, 31.5589541]
            },
            "properties": {
                "NAME": "",
                "PLACE": "hamlet",
                "ADDR:CITY": "",
                "ADDR:HOUSE": "",
                "ADDR:FLATS": "",
                "ADDR:POSTC": ""
            }
        },
        {
            "type": "Feature",
            "geometry": {
                "type": "Point",
                "coordinates": [-4.5845852, 32.6597935]
            },
            "properties": {
                "NAME": "Zebzate",
                "PLACE": "village",
                "ADDR:CITY": "",
                "ADDR:HOUSE": "",
                "ADDR:FLATS": "",
                "ADDR:POSTC": ""
            }
        },
        {
            "type": "Feature",
            "geometry": {
                "type": "Point",
                "coordinates": [-4.5339788, 32.3017474]
            },
            "properties": {
                "NAME": "Petrom",
                "PLACE": "",
                "ADDR:CITY": "Rich",
                "ADDR:HOUSE": "",
                "ADDR:FLATS": "",
                "ADDR:POSTC": ""
            }
        },
        {
            "type": "Feature",
            "geometry": {
                "type": "Point",
                "coordinates": [-4.4981888, 32.2567704]
            },
            "properties": {
                "NAME": "Er-Rich",
                "PLACE": "village",
                "ADDR:CITY": "",
                "ADDR:HOUSE": "",
                "ADDR:FLATS": "",
                "ADDR:POSTC": ""
            }
        },
        {
            "type": "Feature",
            "geometry": {
                "type": "Point",
                "coordinates": [-4.4873383, 32.2751319]
            },
            "properties": {
                "NAME": "Afriquia",
                "PLACE": "",
                "ADDR:CITY": "Rich",
                "ADDR:HOUSE": "",
                "ADDR:FLATS": "",
                "ADDR:POSTC": ""
            }
        },
        {
            "type": "Feature",
            "geometry": {
                "type": "Point",
                "coordinates": [-4.4863468, 32.4951289]
            },
            "properties": {
                "NAME": "Souk de N'Zala",
                "PLACE": "village",
                "ADDR:CITY": "",
                "ADDR:HOUSE": "",
                "ADDR:FLATS": "",
                "ADDR:POSTC": ""
            }
        },
        {
            "type": "Feature",
            "geometry": {
                "type": "Point",
                "coordinates": [-4.4852407, 32.4978262]
            },
            "properties": {
                "NAME": "Inov",
                "PLACE": "",
                "ADDR:CITY": "Ait Balansane",
                "ADDR:HOUSE": "",
                "ADDR:FLATS": "",
                "ADDR:POSTC": ""
            }
        },
        {
            "type": "Feature",
            "geometry": {
                "type": "Point",
                "coordinates": [-4.4850404, 32.499555]
            },
            "properties": {
                "NAME": "Ait Balansane",
                "PLACE": "village",
                "ADDR:CITY": "",
                "ADDR:HOUSE": "",
                "ADDR:FLATS": "",
                "ADDR:POSTC": ""
            }
        },
        {
            "type": "Feature",
            "geometry": {
                "type": "Point",
                "coordinates": [-4.4842303, 31.9630546]
            },
            "properties": {
                "NAME": "Afriquia",
                "PLACE": "",
                "ADDR:CITY": "Errachidia",
                "ADDR:HOUSE": "",
                "ADDR:FLATS": "",
                "ADDR:POSTC": ""
            }
        },
        {
            "type": "Feature",
            "geometry": {
                "type": "Point",
                "coordinates": [-4.466095, 31.9461409]
            },
            "properties": {
                "NAME": "Shell",
                "PLACE": "",
                "ADDR:CITY": "Er Rachidia",
                "ADDR:HOUSE": "",
                "ADDR:FLATS": "",
                "ADDR:POSTC": ""
            }
        },
        {
            "type": "Feature",
            "geometry": {
                "type": "Point",
                "coordinates": [-4.4631766, 31.9434876]
            },
            "properties": {
                "NAME": "CMH",
                "PLACE": "",
                "ADDR:CITY": "Er Rachidia",
                "ADDR:HOUSE": "",
                "ADDR:FLATS": "",
                "ADDR:POSTC": ""
            }
        },
        {
            "type": "Feature",
            "geometry": {
                "type": "Point",
                "coordinates": [-4.4486277, 31.9223743]
            },
            "properties": {
                "NAME": "Shell",
                "PLACE": "",
                "ADDR:CITY": "Er Rachidia",
                "ADDR:HOUSE": "",
                "ADDR:FLATS": "",
                "ADDR:POSTC": ""
            }
        },
        {
            "type": "Feature",
            "geometry": {
                "type": "Point",
                "coordinates": [-4.443514, 31.9196178]
            },
            "properties": {
                "NAME": "ZIZ",
                "PLACE": "",
                "ADDR:CITY": "Er Rachidia",
                "ADDR:HOUSE": "",
                "ADDR:FLATS": "",
                "ADDR:POSTC": ""
            }
        },
        {
            "type": "Feature",
            "geometry": {
                "type": "Point",
                "coordinates": [-4.4381257, 31.9207497]
            },
            "properties": {
                "NAME": "Afriquia",
                "PLACE": "",
                "ADDR:CITY": "Er Rachidia",
                "ADDR:HOUSE": "",
                "ADDR:FLATS": "",
                "ADDR:POSTC": ""
            }
        },
        {
            "type": "Feature",
            "geometry": {
                "type": "Point",
                "coordinates": [-4.4335952, 31.9292779]
            },
            "properties": {
                "NAME": "Er Rachidia الرشيدية",
                "PLACE": "town",
                "ADDR:CITY": "",
                "ADDR:HOUSE": "",
                "ADDR:FLATS": "",
                "ADDR:POSTC": "52000"
            }
        },
        {
            "type": "Feature",
            "geometry": {
                "type": "Point",
                "coordinates": [-4.4335085, 31.9231522]
            },
            "properties": {
                "NAME": "CMH",
                "PLACE": "",
                "ADDR:CITY": "Errachidia",
                "ADDR:HOUSE": "",
                "ADDR:FLATS": "",
                "ADDR:POSTC": ""
            }
        },
        {
            "type": "Feature",
            "geometry": {
                "type": "Point",
                "coordinates": [-4.4329901, 31.9234549]
            },
            "properties": {
                "NAME": "Hotel Meski",
                "PLACE": "",
                "ADDR:CITY": "Er Rachidia",
                "ADDR:HOUSE": "",
                "ADDR:FLATS": "",
                "ADDR:POSTC": ""
            }
        },
        {
            "type": "Feature",
            "geometry": {
                "type": "Point",
                "coordinates": [-4.4166465, 32.2662775]
            },
            "properties": {
                "NAME": "ZIZ",
                "PLACE": "",
                "ADDR:CITY": "Rich",
                "ADDR:HOUSE": "",
                "ADDR:FLATS": "",
                "ADDR:POSTC": ""
            }
        },
        {
            "type": "Feature",
            "geometry": {
                "type": "Point",
                "coordinates": [-4.4151153, 30.6864032]
            },
            "properties": {
                "NAME": "Ramlia",
                "PLACE": "village",
                "ADDR:CITY": "",
                "ADDR:HOUSE": "",
                "ADDR:FLATS": "",
                "ADDR:POSTC": ""
            }
        },
        {
            "type": "Feature",
            "geometry": {
                "type": "Point",
                "coordinates": [-4.412905, 32.2656904]
            },
            "properties": {
                "NAME": "Ait Khoujmane",
                "PLACE": "village",
                "ADDR:CITY": "",
                "ADDR:HOUSE": "",
                "ADDR:FLATS": "",
                "ADDR:POSTC": ""
            }
        },
        {
            "type": "Feature",
            "geometry": {
                "type": "Point",
                "coordinates": [-4.4048264, 31.9366553]
            },
            "properties": {
                "NAME": "Afriquia",
                "PLACE": "",
                "ADDR:CITY": "Er Rachidia",
                "ADDR:HOUSE": "",
                "ADDR:FLATS": "",
                "ADDR:POSTC": ""
            }
        },
        {
            "type": "Feature",
            "geometry": {
                "type": "Point",
                "coordinates": [-4.3931167, 32.244393]
            },
            "properties": {
                "NAME": "Karrandou",
                "PLACE": "village",
                "ADDR:CITY": "",
                "ADDR:HOUSE": "",
                "ADDR:FLATS": "",
                "ADDR:POSTC": ""
            }
        },
        {
            "type": "Feature",
            "geometry": {
                "type": "Point",
                "coordinates": [-4.3847231, 31.9254161]
            },
            "properties": {
                "NAME": "ZIZ",
                "PLACE": "",
                "ADDR:CITY": "Er Rachidia",
                "ADDR:HOUSE": "",
                "ADDR:FLATS": "",
                "ADDR:POSTC": ""
            }
        },
        {
            "type": "Feature",
            "geometry": {
                "type": "Point",
                "coordinates": [-4.3678185, 31.9143142]
            },
            "properties": {
                "NAME": "Petrom",
                "PLACE": "",
                "ADDR:CITY": "Er Rachidia",
                "ADDR:HOUSE": "",
                "ADDR:FLATS": "",
                "ADDR:POSTC": ""
            }
        },
        {
            "type": "Feature",
            "geometry": {
                "type": "Point",
                "coordinates": [-4.366013, 32.1835607]
            },
            "properties": {
                "NAME": "Station Thermale de Hamat Ali Cheri",
                "PLACE": "hamlet",
                "ADDR:CITY": "",
                "ADDR:HOUSE": "",
                "ADDR:FLATS": "",
                "ADDR:POSTC": ""
            }
        },
        {
            "type": "Feature",
            "geometry": {
                "type": "Point",
                "coordinates": [-4.2909313, 31.288493]
            },
            "properties": {
                "NAME": "ZIZ",
                "PLACE": "",
                "ADDR:CITY": "Rissani",
                "ADDR:HOUSE": "",
                "ADDR:FLATS": "",
                "ADDR:POSTC": ""
            }
        },
        {
            "type": "Feature",
            "geometry": {
                "type": "Point",
                "coordinates": [-4.2897996, 31.2975984]
            },
            "properties": {
                "NAME": "Shell",
                "PLACE": "",
                "ADDR:CITY": "Rissani",
                "ADDR:HOUSE": "",
                "ADDR:FLATS": "",
                "ADDR:POSTC": ""
            }
        },
        {
            "type": "Feature",
            "geometry": {
                "type": "Point",
                "coordinates": [-4.281462, 31.8605194]
            },
            "properties": {
                "NAME": "Meski",
                "PLACE": "village",
                "ADDR:CITY": "",
                "ADDR:HOUSE": "",
                "ADDR:FLATS": "",
                "ADDR:POSTC": ""
            }
        },
        {
            "type": "Feature",
            "geometry": {
                "type": "Point",
                "coordinates": [-4.2712922, 31.2817044]
            },
            "properties": {
                "NAME": "ZIZ",
                "PLACE": "",
                "ADDR:CITY": "Rissani",
                "ADDR:HOUSE": "",
                "ADDR:FLATS": "",
                "ADDR:POSTC": ""
            }
        },
        {
            "type": "Feature",
            "geometry": {
                "type": "Point",
                "coordinates": [-4.2671062, 31.2831087]
            },
            "properties": {
                "NAME": "Rissani",
                "PLACE": "town",
                "ADDR:CITY": "",
                "ADDR:HOUSE": "",
                "ADDR:FLATS": "",
                "ADDR:POSTC": ""
            }
        },
        {
            "type": "Feature",
            "geometry": {
                "type": "Point",
                "coordinates": [-4.2440994, 31.4292495]
            },
            "properties": {
                "NAME": "Afriquia",
                "PLACE": "",
                "ADDR:CITY": "Erfoud",
                "ADDR:HOUSE": "",
                "ADDR:FLATS": "",
                "ADDR:POSTC": ""
            }
        },
        {
            "type": "Feature",
            "geometry": {
                "type": "Point",
                "coordinates": [-4.2323647, 31.4370929]
            },
            "properties": {
                "NAME": "TOTAL",
                "PLACE": "",
                "ADDR:CITY": "Erfoud",
                "ADDR:HOUSE": "",
                "ADDR:FLATS": "",
                "ADDR:POSTC": ""
            }
        },
        {
            "type": "Feature",
            "geometry": {
                "type": "Point",
                "coordinates": [-4.2320755, 31.4326045]
            },
            "properties": {
                "NAME": "Erfoud",
                "PLACE": "town",
                "ADDR:CITY": "",
                "ADDR:HOUSE": "",
                "ADDR:FLATS": "",
                "ADDR:POSTC": ""
            }
        },
        {
            "type": "Feature",
            "geometry": {
                "type": "Point",
                "coordinates": [-4.2307944, 31.4401772]
            },
            "properties": {
                "NAME": "Hotel Tafilalet",
                "PLACE": "",
                "ADDR:CITY": "Erfoud",
                "ADDR:HOUSE": "",
                "ADDR:FLATS": "",
                "ADDR:POSTC": ""
            }
        },
        {
            "type": "Feature",
            "geometry": {
                "type": "Point",
                "coordinates": [-4.2306039, 31.4416822]
            },
            "properties": {
                "NAME": "ZIZ",
                "PLACE": "",
                "ADDR:CITY": "Erfoud",
                "ADDR:HOUSE": "",
                "ADDR:FLATS": "",
                "ADDR:POSTC": ""
            }
        },
        {
            "type": "Feature",
            "geometry": {
                "type": "Point",
                "coordinates": [-4.216115, 31.4666688]
            },
            "properties": {
                "NAME": "Maadid",
                "PLACE": "village",
                "ADDR:CITY": "",
                "ADDR:HOUSE": "",
                "ADDR:FLATS": "",
                "ADDR:POSTC": ""
            }
        },
        {
            "type": "Feature",
            "geometry": {
                "type": "Point",
                "coordinates": [-4.2134829, 31.4869581]
            },
            "properties": {
                "NAME": "Kasbah-Hotel Xaluca",
                "PLACE": "",
                "ADDR:CITY": "Maadid",
                "ADDR:HOUSE": "",
                "ADDR:FLATS": "",
                "ADDR:POSTC": ""
            }
        },
        {
            "type": "Feature",
            "geometry": {
                "type": "Point",
                "coordinates": [-4.209323, 31.4896211]
            },
            "properties": {
                "NAME": "Kasbah-Hotel Chergui",
                "PLACE": "",
                "ADDR:CITY": "Maadid",
                "ADDR:HOUSE": "km 5.5",
                "ADDR:FLATS": "",
                "ADDR:POSTC": "52200"
            }
        },
        {
            "type": "Feature",
            "geometry": {
                "type": "Point",
                "coordinates": [-4.2025011, 31.4968706]
            },
            "properties": {
                "NAME": "Afriquia",
                "PLACE": "",
                "ADDR:CITY": "Maadid",
                "ADDR:HOUSE": "",
                "ADDR:FLATS": "",
                "ADDR:POSTC": ""
            }
        },
        {
            "type": "Feature",
            "geometry": {
                "type": "Point",
                "coordinates": [-4.2007288, 31.4987268]
            },
            "properties": {
                "NAME": "Sijilmassa",
                "PLACE": "",
                "ADDR:CITY": "Maadid",
                "ADDR:HOUSE": "",
                "ADDR:FLATS": "",
                "ADDR:POSTC": ""
            }
        },
        {
            "type": "Feature",
            "geometry": {
                "type": "Point",
                "coordinates": [-4.1787689, 31.6877921]
            },
            "properties": {
                "NAME": "Aoufous",
                "PLACE": "village",
                "ADDR:CITY": "",
                "ADDR:HOUSE": "",
                "ADDR:FLATS": "",
                "ADDR:POSTC": ""
            }
        },
        {
            "type": "Feature",
            "geometry": {
                "type": "Point",
                "coordinates": [-4.1782347, 31.6855194]
            },
            "properties": {
                "NAME": "Afriquia",
                "PLACE": "",
                "ADDR:CITY": "Aoufous",
                "ADDR:HOUSE": "",
                "ADDR:FLATS": "",
                "ADDR:POSTC": ""
            }
        },
        {
            "type": "Feature",
            "geometry": {
                "type": "Point",
                "coordinates": [-4.1692233, 30.852798]
            },
            "properties": {
                "NAME": "Ouzina",
                "PLACE": "village",
                "ADDR:CITY": "",
                "ADDR:HOUSE": "",
                "ADDR:FLATS": "",
                "ADDR:POSTC": ""
            }
        },
        {
            "type": "Feature",
            "geometry": {
                "type": "Point",
                "coordinates": [-4.0905573, 32.9602935]
            },
            "properties": {
                "NAME": "Brija",
                "PLACE": "village",
                "ADDR:CITY": "",
                "ADDR:HOUSE": "",
                "ADDR:FLATS": "",
                "ADDR:POSTC": ""
            }
        },
        {
            "type": "Feature",
            "geometry": {
                "type": "Point",
                "coordinates": [-4.0738119, 32.341425]
            },
            "properties": {
                "NAME": "Gourrama",
                "PLACE": "village",
                "ADDR:CITY": "",
                "ADDR:HOUSE": "",
                "ADDR:FLATS": "",
                "ADDR:POSTC": ""
            }
        },
        {
            "type": "Feature",
            "geometry": {
                "type": "Point",
                "coordinates": [-4.0261353, 31.1408782]
            },
            "properties": {
                "NAME": "Hassilabiad",
                "PLACE": "village",
                "ADDR:CITY": "",
                "ADDR:HOUSE": "",
                "ADDR:FLATS": "",
                "ADDR:POSTC": ""
            }
        },
        {
            "type": "Feature",
            "geometry": {
                "type": "Point",
                "coordinates": [-4.0256156, 31.1441995]
            },
            "properties": {
                "NAME": "Hotel Nasser Palace",
                "PLACE": "",
                "ADDR:CITY": "Merzouga",
                "ADDR:HOUSE": "",
                "ADDR:FLATS": "",
                "ADDR:POSTC": ""
            }
        },
        {
            "type": "Feature",
            "geometry": {
                "type": "Point",
                "coordinates": [-4.013515, 31.0990801]
            },
            "properties": {
                "NAME": "Merzouga",
                "PLACE": "town",
                "ADDR:CITY": "",
                "ADDR:HOUSE": "",
                "ADDR:FLATS": "",
                "ADDR:POSTC": ""
            }
        },
        {
            "type": "Feature",
            "geometry": {
                "type": "Point",
                "coordinates": [-3.9967064, 30.9070882]
            },
            "properties": {
                "NAME": "Taouz",
                "PLACE": "village",
                "ADDR:CITY": "",
                "ADDR:HOUSE": "",
                "ADDR:FLATS": "",
                "ADDR:POSTC": ""
            }
        },
        {
            "type": "Feature",
            "geometry": {
                "type": "Point",
                "coordinates": [-3.9609356, 31.1026244]
            },
            "properties": {
                "NAME": "Oubira",
                "PLACE": "locality",
                "ADDR:CITY": "",
                "ADDR:HOUSE": "",
                "ADDR:FLATS": "",
                "ADDR:POSTC": ""
            }
        },
        {
            "type": "Feature",
            "geometry": {
                "type": "Point",
                "coordinates": [-3.4657492, 32.2914288]
            },
            "properties": {
                "NAME": "Beni Tadjite",
                "PLACE": "town",
                "ADDR:CITY": "",
                "ADDR:HOUSE": "",
                "ADDR:FLATS": "",
                "ADDR:POSTC": ""
            }
        },
        {
            "type": "Feature",
            "geometry": {
                "type": "Point",
                "coordinates": [-3.4649519, 32.2999052]
            },
            "properties": {
                "NAME": "Beni-Taijite",
                "PLACE": "village",
                "ADDR:CITY": "",
                "ADDR:HOUSE": "",
                "ADDR:FLATS": "",
                "ADDR:POSTC": ""
            }
        },
        {
            "type": "Feature",
            "geometry": {
                "type": "Point",
                "coordinates": [-3.4397063, 32.5360168]
            },
            "properties": {
                "NAME": "Talsinnt",
                "PLACE": "town",
                "ADDR:CITY": "",
                "ADDR:HOUSE": "",
                "ADDR:FLATS": "",
                "ADDR:POSTC": ""
            }
        },
        {
            "type": "Feature",
            "geometry": {
                "type": "Point",
                "coordinates": [-3.2938831, 33.8894005]
            },
            "properties": {
                "NAME": "",
                "PLACE": "village",
                "ADDR:CITY": "",
                "ADDR:HOUSE": "",
                "ADDR:FLATS": "",
                "ADDR:POSTC": ""
            }
        },
        {
            "type": "Feature",
            "geometry": {
                "type": "Point",
                "coordinates": [-3.1834621, 32.2572396]
            },
            "properties": {
                "NAME": "Beni Bassia",
                "PLACE": "village",
                "ADDR:CITY": "",
                "ADDR:HOUSE": "",
                "ADDR:FLATS": "",
                "ADDR:POSTC": ""
            }
        },
        {
            "type": "Feature",
            "geometry": {
                "type": "Point",
                "coordinates": [-3.0492804, 32.0392442]
            },
            "properties": {
                "NAME": "Bouanane",
                "PLACE": "town",
                "ADDR:CITY": "",
                "ADDR:HOUSE": "",
                "ADDR:FLATS": "",
                "ADDR:POSTC": ""
            }
        },
        {
            "type": "Feature",
            "geometry": {
                "type": "Point",
                "coordinates": [-3.0397258, 33.9863679]
            },
            "properties": {
                "NAME": "",
                "PLACE": "village",
                "ADDR:CITY": "",
                "ADDR:HOUSE": "",
                "ADDR:FLATS": "",
                "ADDR:POSTC": ""
            }
        },
        {
            "type": "Feature",
            "geometry": {
                "type": "Point",
                "coordinates": [-3.0333367, 30.8948545]
            },
            "properties": {
                "NAME": "Hamaguir",
                "PLACE": "village",
                "ADDR:CITY": "",
                "ADDR:HOUSE": "",
                "ADDR:FLATS": "",
                "ADDR:POSTC": ""
            }
        },
        {
            "type": "Feature",
            "geometry": {
                "type": "Point",
                "coordinates": [-2.9083677, 34.4170993]
            },
            "properties": {
                "NAME": "تاوريرت Taourirt",
                "PLACE": "town",
                "ADDR:CITY": "",
                "ADDR:HOUSE": "",
                "ADDR:FLATS": "",
                "ADDR:POSTC": ""
            }
        },
        {
            "type": "Feature",
            "geometry": {
                "type": "Point",
                "coordinates": [-2.7104418, 31.0274839]
            },
            "properties": {
                "NAME": "Abadla العبادلة",
                "PLACE": "town",
                "ADDR:CITY": "",
                "ADDR:HOUSE": "",
                "ADDR:FLATS": "",
                "ADDR:POSTC": ""
            }
        },
        {
            "type": "Feature",
            "geometry": {
                "type": "Point",
                "coordinates": [-2.7076761, 34.4827424]
            },
            "properties": {
                "NAME": "",
                "PLACE": "town",
                "ADDR:CITY": "",
                "ADDR:HOUSE": "",
                "ADDR:FLATS": "",
                "ADDR:POSTC": ""
            }
        },
        {
            "type": "Feature",
            "geometry": {
                "type": "Point",
                "coordinates": [-2.524983, 31.1707065]
            },
            "properties": {
                "NAME": "Ksiksou",
                "PLACE": "locality",
                "ADDR:CITY": "",
                "ADDR:HOUSE": "",
                "ADDR:FLATS": "",
                "ADDR:POSTC": ""
            }
        },
        {
            "type": "Feature",
            "geometry": {
                "type": "Point",
                "coordinates": [-2.5062052, 34.5861104]
            },
            "properties": {
                "NAME": "العيون El Aioun",
                "PLACE": "town",
                "ADDR:CITY": "",
                "ADDR:HOUSE": "",
                "ADDR:FLATS": "",
                "ADDR:POSTC": ""
            }
        },
        {
            "type": "Feature",
            "geometry": {
                "type": "Point",
                "coordinates": [-2.3294087, 34.9266755]
            },
            "properties": {
                "NAME": "Berkane",
                "PLACE": "town",
                "ADDR:CITY": "",
                "ADDR:HOUSE": "",
                "ADDR:FLATS": "",
                "ADDR:POSTC": ""
            }
        },
        {
            "type": "Feature",
            "geometry": {
                "type": "Point",
                "coordinates": [-2.2908264, 30.4528493]
            },
            "properties": {
                "NAME": "Igli",
                "PLACE": "village",
                "ADDR:CITY": "",
                "ADDR:HOUSE": "",
                "ADDR:FLATS": "",
                "ADDR:POSTC": ""
            }
        },
        {
            "type": "Feature",
            "geometry": {
                "type": "Point",
                "coordinates": [-2.2245756, 35.0822208]
            },
            "properties": {
                "NAME": "Saidia",
                "PLACE": "village",
                "ADDR:CITY": "",
                "ADDR:HOUSE": "",
                "ADDR:FLATS": "",
                "ADDR:POSTC": ""
            }
        },
        {
            "type": "Feature",
            "geometry": {
                "type": "Point",
                "coordinates": [-2.2166234, 31.6160969]
            },
            "properties": {
                "NAME": "Béchar",
                "PLACE": "city",
                "ADDR:CITY": "",
                "ADDR:HOUSE": "",
                "ADDR:FLATS": "",
                "ADDR:POSTC": ""
            }
        },
        {
            "type": "Feature",
            "geometry": {
                "type": "Point",
                "coordinates": [-2.2046629, 35.0816589]
            },
            "properties": {
                "NAME": "Marsa Ben M'Hidi",
                "PLACE": "village",
                "ADDR:CITY": "",
                "ADDR:HOUSE": "",
                "ADDR:FLATS": "",
                "ADDR:POSTC": ""
            }
        },
        {
            "type": "Feature",
            "geometry": {
                "type": "Point",
                "coordinates": [-2.1901747, 35.0760769]
            },
            "properties": {
                "NAME": "Chayeb-Rassou",
                "PLACE": "hamlet",
                "ADDR:CITY": "",
                "ADDR:HOUSE": "",
                "ADDR:FLATS": "",
                "ADDR:POSTC": ""
            }
        },
        {
            "type": "Feature",
            "geometry": {
                "type": "Point",
                "coordinates": [-2.1798847, 31.5592695]
            },
            "properties": {
                "NAME": "Djeniene",
                "PLACE": "village",
                "ADDR:CITY": "",
                "ADDR:HOUSE": "",
                "ADDR:FLATS": "",
                "ADDR:POSTC": ""
            }
        },
        {
            "type": "Feature",
            "geometry": {
                "type": "Point",
                "coordinates": [-2.165029, 34.307352]
            },
            "properties": {
                "NAME": "جرادة Jerada",
                "PLACE": "town",
                "ADDR:CITY": "",
                "ADDR:HOUSE": "",
                "ADDR:FLATS": "",
                "ADDR:POSTC": ""
            }
        },
        {
            "type": "Feature",
            "geometry": {
                "type": "Point",
                "coordinates": [-2.0994532, 34.9746074]
            },
            "properties": {
                "NAME": "Boukanoun",
                "PLACE": "village",
                "ADDR:CITY": "",
                "ADDR:HOUSE": "",
                "ADDR:FLATS": "",
                "ADDR:POSTC": ""
            }
        },
        {
            "type": "Feature",
            "geometry": {
                "type": "Point",
                "coordinates": [-2.0977946, 34.953764]
            },
            "properties": {
                "NAME": "Ahfir",
                "PLACE": "town",
                "ADDR:CITY": "",
                "ADDR:HOUSE": "",
                "ADDR:FLATS": "",
                "ADDR:POSTC": ""
            }
        },
        {
            "type": "Feature",
            "geometry": {
                "type": "Point",
                "coordinates": [-2.0690546, 31.7477877]
            },
            "properties": {
                "NAME": "Beni Zireg",
                "PLACE": "hamlet",
                "ADDR:CITY": "",
                "ADDR:HOUSE": "",
                "ADDR:FLATS": "",
                "ADDR:POSTC": ""
            }
        },
        {
            "type": "Feature",
            "geometry": {
                "type": "Point",
                "coordinates": [-2.0649491, 35.0196062]
            },
            "properties": {
                "NAME": "Arbouz",
                "PLACE": "village",
                "ADDR:CITY": "",
                "ADDR:HOUSE": "",
                "ADDR:FLATS": "",
                "ADDR:POSTC": ""
            }
        },
        {
            "type": "Feature",
            "geometry": {
                "type": "Point",
                "coordinates": [-2.0470603, 34.4811377]
            },
            "properties": {
                "NAME": "Guenfouda",
                "PLACE": "town",
                "ADDR:CITY": "",
                "ADDR:HOUSE": "",
                "ADDR:FLATS": "",
                "ADDR:POSTC": ""
            }
        },
        {
            "type": "Feature",
            "geometry": {
                "type": "Point",
                "coordinates": [-2.0317999, 34.9661057]
            },
            "properties": {
                "NAME": "Bab El Assa",
                "PLACE": "village",
                "ADDR:CITY": "",
                "ADDR:HOUSE": "",
                "ADDR:FLATS": "",
                "ADDR:POSTC": ""
            }
        },
        {
            "type": "Feature",
            "geometry": {
                "type": "Point",
                "coordinates": [-2.0285278, 30.9174266]
            },
            "properties": {
                "NAME": "Taghit",
                "PLACE": "village",
                "ADDR:CITY": "",
                "ADDR:HOUSE": "",
                "ADDR:FLATS": "",
                "ADDR:POSTC": ""
            }
        },
        {
            "type": "Feature",
            "geometry": {
                "type": "Point",
                "coordinates": [-2.0067657, 35.0676456]
            },
            "properties": {
                "NAME": "Ouled-Benayad",
                "PLACE": "hamlet",
                "ADDR:CITY": "",
                "ADDR:HOUSE": "",
                "ADDR:FLATS": "",
                "ADDR:POSTC": ""
            }
        },
        {
            "type": "Feature",
            "geometry": {
                "type": "Point",
                "coordinates": [-1.9996719, 33.0500448]
            },
            "properties": {
                "NAME": "Tendrara",
                "PLACE": "town",
                "ADDR:CITY": "",
                "ADDR:HOUSE": "",
                "ADDR:FLATS": "",
                "ADDR:POSTC": ""
            }
        },
        {
            "type": "Feature",
            "geometry": {
                "type": "Point",
                "coordinates": [-1.9967832, 35.0270945]
            },
            "properties": {
                "NAME": "Souk Tleta",
                "PLACE": "village",
                "ADDR:CITY": "",
                "ADDR:HOUSE": "",
                "ADDR:FLATS": "",
                "ADDR:POSTC": ""
            }
        },
        {
            "type": "Feature",
            "geometry": {
                "type": "Point",
                "coordinates": [-1.9901048, 34.9647604]
            },
            "properties": {
                "NAME": "Benkrama",
                "PLACE": "village",
                "ADDR:CITY": "",
                "ADDR:HOUSE": "",
                "ADDR:FLATS": "",
                "ADDR:POSTC": ""
            }
        },
        {
            "type": "Feature",
            "geometry": {
                "type": "Point",
                "coordinates": [-1.966808, 35.058422]
            },
            "properties": {
                "NAME": "Sidi yahia",
                "PLACE": "hamlet",
                "ADDR:CITY": "",
                "ADDR:HOUSE": "",
                "ADDR:FLATS": "",
                "ADDR:POSTC": ""
            }
        },
        {
            "type": "Feature",
            "geometry": {
                "type": "Point",
                "coordinates": [-1.9580139, 32.5339939]
            },
            "properties": {
                "NAME": "Bouarfa بوعرفة",
                "PLACE": "town",
                "ADDR:CITY": "",
                "ADDR:HOUSE": "",
                "ADDR:FLATS": "",
                "ADDR:POSTC": ""
            }
        },
        {
            "type": "Feature",
            "geometry": {
                "type": "Point",
                "coordinates": [-1.941985, 35.0714492]
            },
            "properties": {
                "NAME": "Bkhata",
                "PLACE": "hamlet",
                "ADDR:CITY": "",
                "ADDR:HOUSE": "",
                "ADDR:FLATS": "",
                "ADDR:POSTC": ""
            }
        },
        {
            "type": "Feature",
            "geometry": {
                "type": "Point",
                "coordinates": [-1.929318, 34.9437353]
            },
            "properties": {
                "NAME": "Sidi Boudjenane",
                "PLACE": "village",
                "ADDR:CITY": "",
                "ADDR:HOUSE": "",
                "ADDR:FLATS": "",
                "ADDR:POSTC": ""
            }
        },
        {
            "type": "Feature",
            "geometry": {
                "type": "Point",
                "coordinates": [-1.9276971, 35.0428273]
            },
            "properties": {
                "NAME": "Mira",
                "PLACE": "village",
                "ADDR:CITY": "",
                "ADDR:HOUSE": "",
                "ADDR:FLATS": "",
                "ADDR:POSTC": ""
            }
        },
        {
            "type": "Feature",
            "geometry": {
                "type": "Point",
                "coordinates": [-1.920379, 34.6800187]
            },
            "properties": {
                "NAME": "Oujda وجدة‎",
                "PLACE": "city",
                "ADDR:CITY": "",
                "ADDR:HOUSE": "",
                "ADDR:FLATS": "",
                "ADDR:POSTC": ""
            }
        },
        {
            "type": "Feature",
            "geometry": {
                "type": "Point",
                "coordinates": [-1.9162718, 34.9212181]
            },
            "properties": {
                "NAME": "Souani",
                "PLACE": "village",
                "ADDR:CITY": "",
                "ADDR:HOUSE": "",
                "ADDR:FLATS": "",
                "ADDR:POSTC": ""
            }
        },
        {
            "type": "Feature",
            "geometry": {
                "type": "Point",
                "coordinates": [-1.9063694, 34.8870546]
            },
            "properties": {
                "NAME": "Mghagha",
                "PLACE": "village",
                "ADDR:CITY": "",
                "ADDR:HOUSE": "",
                "ADDR:FLATS": "",
                "ADDR:POSTC": ""
            }
        },
        {
            "type": "Feature",
            "geometry": {
                "type": "Point",
                "coordinates": [-1.9042072, 35.0013423]
            },
            "properties": {
                "NAME": "Mezaourou",
                "PLACE": "hamlet",
                "ADDR:CITY": "",
                "ADDR:HOUSE": "",
                "ADDR:FLATS": "",
                "ADDR:POSTC": ""
            }
        },
        {
            "type": "Feature",
            "geometry": {
                "type": "Point",
                "coordinates": [-1.8889074, 35.0411549]
            },
            "properties": {
                "NAME": "Tounane",
                "PLACE": "village",
                "ADDR:CITY": "",
                "ADDR:HOUSE": "",
                "ADDR:FLATS": "",
                "ADDR:POSTC": ""
            }
        },
        {
            "type": "Feature",
            "geometry": {
                "type": "Point",
                "coordinates": [-1.8855327, 35.0445739]
            },
            "properties": {
                "NAME": "Souahlia",
                "PLACE": "town",
                "ADDR:CITY": "",
                "ADDR:HOUSE": "",
                "ADDR:FLATS": "",
                "ADDR:POSTC": ""
            }
        },
        {
            "type": "Feature",
            "geometry": {
                "type": "Point",
                "coordinates": [-1.885142, 35.0755265]
            },
            "properties": {
                "NAME": "Arkoub",
                "PLACE": "hamlet",
                "ADDR:CITY": "",
                "ADDR:HOUSE": "",
                "ADDR:FLATS": "",
                "ADDR:POSTC": ""
            }
        },
        {
            "type": "Feature",
            "geometry": {
                "type": "Point",
                "coordinates": [-1.8838818, 34.9167603]
            },
            "properties": {
                "NAME": "Ouled Remdane",
                "PLACE": "hamlet",
                "ADDR:CITY": "",
                "ADDR:HOUSE": "",
                "ADDR:FLATS": "",
                "ADDR:POSTC": ""
            }
        },
        {
            "type": "Feature",
            "geometry": {
                "type": "Point",
                "coordinates": [-1.880131, 35.0943882]
            },
            "properties": {
                "NAME": "Adess",
                "PLACE": "village",
                "ADDR:CITY": "",
                "ADDR:HOUSE": "",
                "ADDR:FLATS": "",
                "ADDR:POSTC": ""
            }
        },
        {
            "type": "Feature",
            "geometry": {
                "type": "Point",
                "coordinates": [-1.8795903, 34.8784647]
            },
            "properties": {
                "NAME": "Chebikia",
                "PLACE": "village",
                "ADDR:CITY": "",
                "ADDR:HOUSE": "",
                "ADDR:FLATS": "",
                "ADDR:POSTC": ""
            }
        },
        {
            "type": "Feature",
            "geometry": {
                "type": "Point",
                "coordinates": [-1.8771392, 35.0577063]
            },
            "properties": {
                "NAME": "Beghaoun",
                "PLACE": "village",
                "ADDR:CITY": "",
                "ADDR:HOUSE": "",
                "ADDR:FLATS": "",
                "ADDR:POSTC": ""
            }
        },
        {
            "type": "Feature",
            "geometry": {
                "type": "Point",
                "coordinates": [-1.8747483, 34.9872657]
            },
            "properties": {
                "NAME": "Bouriche",
                "PLACE": "hamlet",
                "ADDR:CITY": "",
                "ADDR:HOUSE": "",
                "ADDR:FLATS": "",
                "ADDR:POSTC": ""
            }
        },
        {
            "type": "Feature",
            "geometry": {
                "type": "Point",
                "coordinates": [-1.8708001, 34.9664486]
            },
            "properties": {
                "NAME": "El Adjaidja",
                "PLACE": "village",
                "ADDR:CITY": "",
                "ADDR:HOUSE": "",
                "ADDR:FLATS": "",
                "ADDR:POSTC": ""
            }
        },
        {
            "type": "Feature",
            "geometry": {
                "type": "Point",
                "coordinates": [-1.8659041, 35.0849196]
            },
            "properties": {
                "NAME": "Louze",
                "PLACE": "hamlet",
                "ADDR:CITY": "",
                "ADDR:HOUSE": "",
                "ADDR:FLATS": "",
                "ADDR:POSTC": ""
            }
        },
        {
            "type": "Feature",
            "geometry": {
                "type": "Point",
                "coordinates": [-1.86337, 35.0882534]
            },
            "properties": {
                "NAME": "Ouled Ziri",
                "PLACE": "suburb",
                "ADDR:CITY": "",
                "ADDR:HOUSE": "",
                "ADDR:FLATS": "",
                "ADDR:POSTC": ""
            }
        },
        {
            "type": "Feature",
            "geometry": {
                "type": "Point",
                "coordinates": [-1.8631873, 35.0932792]
            },
            "properties": {
                "NAME": "Ramla",
                "PLACE": "suburb",
                "ADDR:CITY": "",
                "ADDR:HOUSE": "",
                "ADDR:FLATS": "",
                "ADDR:POSTC": ""
            }
        },
        {
            "type": "Feature",
            "geometry": {
                "type": "Point",
                "coordinates": [-1.8602906, 35.0936638]
            },
            "properties": {
                "NAME": "Ghazaouet غزوات",
                "PLACE": "town",
                "ADDR:CITY": "",
                "ADDR:HOUSE": "",
                "ADDR:FLATS": "",
                "ADDR:POSTC": ""
            }
        },
        {
            "type": "Feature",
            "geometry": {
                "type": "Point",
                "coordinates": [-1.8564042, 35.0778237]
            },
            "properties": {
                "NAME": "Dmine",
                "PLACE": "hamlet",
                "ADDR:CITY": "",
                "ADDR:HOUSE": "",
                "ADDR:FLATS": "",
                "ADDR:POSTC": ""
            }
        },
        {
            "type": "Feature",
            "geometry": {
                "type": "Point",
                "coordinates": [-1.8533938, 35.0642377]
            },
            "properties": {
                "NAME": "Byaet",
                "PLACE": "hamlet",
                "ADDR:CITY": "",
                "ADDR:HOUSE": "",
                "ADDR:FLATS": "",
                "ADDR:POSTC": ""
            }
        },
        {
            "type": "Feature",
            "geometry": {
                "type": "Point",
                "coordinates": [-1.8532026, 34.9863656]
            },
            "properties": {
                "NAME": "Tarnana",
                "PLACE": "hamlet",
                "ADDR:CITY": "",
                "ADDR:HOUSE": "",
                "ADDR:FLATS": "",
                "ADDR:POSTC": ""
            }
        },
        {
            "type": "Feature",
            "geometry": {
                "type": "Point",
                "coordinates": [-1.8479761, 35.0046181]
            },
            "properties": {
                "NAME": "Dar Ben'ich",
                "PLACE": "hamlet",
                "ADDR:CITY": "",
                "ADDR:HOUSE": "",
                "ADDR:FLATS": "",
                "ADDR:POSTC": ""
            }
        },
        {
            "type": "Feature",
            "geometry": {
                "type": "Point",
                "coordinates": [-1.8449795, 35.0756829]
            },
            "properties": {
                "NAME": "Les Orangers",
                "PLACE": "village",
                "ADDR:CITY": "",
                "ADDR:HOUSE": "",
                "ADDR:FLATS": "",
                "ADDR:POSTC": ""
            }
        },
        {
            "type": "Feature",
            "geometry": {
                "type": "Point",
                "coordinates": [-1.8429786, 35.0969013]
            },
            "properties": {
                "NAME": "Sidi Amar",
                "PLACE": "suburb",
                "ADDR:CITY": "",
                "ADDR:HOUSE": "",
                "ADDR:FLATS": "",
                "ADDR:POSTC": ""
            }
        },
        {
            "type": "Feature",
            "geometry": {
                "type": "Point",
                "coordinates": [-1.8429302, 34.7964273]
            },
            "properties": {
                "NAME": "Zoudj Bghal",
                "PLACE": "village",
                "ADDR:CITY": "",
                "ADDR:HOUSE": "",
                "ADDR:FLATS": "",
                "ADDR:POSTC": ""
            }
        },
        {
            "type": "Feature",
            "geometry": {
                "type": "Point",
                "coordinates": [-1.8381716, 35.0505506]
            },
            "properties": {
                "NAME": "Tient",
                "PLACE": "village",
                "ADDR:CITY": "",
                "ADDR:HOUSE": "",
                "ADDR:FLATS": "",
                "ADDR:POSTC": ""
            }
        },
        {
            "type": "Feature",
            "geometry": {
                "type": "Point",
                "coordinates": [-1.8380767, 35.0314678]
            },
            "properties": {
                "NAME": "Bou-kdema",
                "PLACE": "hamlet",
                "ADDR:CITY": "",
                "ADDR:HOUSE": "",
                "ADDR:FLATS": "",
                "ADDR:POSTC": ""
            }
        },
        {
            "type": "Feature",
            "geometry": {
                "type": "Point",
                "coordinates": [-1.8380767, 35.0314678]
            },
            "properties": {
                "NAME": "Bou-kdema",
                "PLACE": "hamlet",
                "ADDR:CITY": "",
                "ADDR:HOUSE": "",
                "ADDR:FLATS": "",
                "ADDR:POSTC": ""
            }
        },
        {
            "type": "Feature",
            "geometry": {
                "type": "Point",
                "coordinates": [-1.8262693, 34.9884507]
            },
            "properties": {
                "NAME": "Sdadek",
                "PLACE": "hamlet",
                "ADDR:CITY": "",
                "ADDR:HOUSE": "",
                "ADDR:FLATS": "",
                "ADDR:POSTC": ""
            }
        },
        {
            "type": "Feature",
            "geometry": {
                "type": "Point",
                "coordinates": [-1.8214899, 35.0278482]
            },
            "properties": {
                "NAME": "Ouled-Benabdalah",
                "PLACE": "hamlet",
                "ADDR:CITY": "",
                "ADDR:HOUSE": "",
                "ADDR:FLATS": "",
                "ADDR:POSTC": ""
            }
        },
        {
            "type": "Feature",
            "geometry": {
                "type": "Point",
                "coordinates": [-1.8214899, 35.0278482]
            },
            "properties": {
                "NAME": "Ouled-Benabdalah",
                "PLACE": "hamlet",
                "ADDR:CITY": "",
                "ADDR:HOUSE": "",
                "ADDR:FLATS": "",
                "ADDR:POSTC": ""
            }
        },
        {
            "type": "Feature",
            "geometry": {
                "type": "Point",
                "coordinates": [-1.8204923, 35.0629443]
            },
            "properties": {
                "NAME": "Djemaa Sakhra",
                "PLACE": "suburb",
                "ADDR:CITY": "",
                "ADDR:HOUSE": "",
                "ADDR:FLATS": "",
                "ADDR:POSTC": ""
            }
        },
        {
            "type": "Feature",
            "geometry": {
                "type": "Point",
                "coordinates": [-1.8113342, 34.9084296]
            },
            "properties": {
                "NAME": "Maaziz",
                "PLACE": "village",
                "ADDR:CITY": "",
                "ADDR:HOUSE": "",
                "ADDR:FLATS": "",
                "ADDR:POSTC": ""
            }
        },
        {
            "type": "Feature",
            "geometry": {
                "type": "Point",
                "coordinates": [-1.8078832, 35.0336084]
            },
            "properties": {
                "NAME": "Sidi-Daoued",
                "PLACE": "hamlet",
                "ADDR:CITY": "",
                "ADDR:HOUSE": "",
                "ADDR:FLATS": "",
                "ADDR:POSTC": ""
            }
        },
        {
            "type": "Feature",
            "geometry": {
                "type": "Point",
                "coordinates": [-1.8071492, 34.8311338]
            },