{"results":[{"address_components":[{"long_name":"Médéa","short_name":"Médéa","types":["locality","political"]},{"long_name":"Wilaya de Médéa","short_name":"Wilaya de Médéa","types":["administrative_area_level_1","political"]},{"long_name":"Algérie","short_name":"DZ","types":["country","political"]}],"formatted_address":"Médéa, Algérie","geometry":{"bounds":{"northeast":{"lat":36.3364236,"lng":2.823658},"southwest":{"lat":36.2312581,"lng":2.7220345}},"location":{"lat":36.2853847,"lng":2.7680247},"location_type":"APPROXIMATE","viewport":{"northeast":{"lat":36.3364236,"lng":2.823658},"southwest":{"lat":36.2312581,"lng":2.7220345}}},"place_id":"ChIJI0Iip8JqjxIRPunth0R6ChU","types":["locality","political"]},{"address_components":[{"long_name":"Wilaya de Médéa","short_name":"Wilaya de Médéa","types":["administrative_area_level_1","political"]},{"long_name":"Algérie","short_name":"DZ","types":["country","political"]}],"formatted_address":"Wilaya de Médéa, Algérie","geometry":{"bounds":{"northeast":{"lat":36.486568,"lng":3.7106779},"southwest":{"lat":35.435902,"lng":2.2126921}},"location":{"lat":36.0534863,"lng":2.9375739},"location_type":"APPROXIMATE","viewport":{"northeast":{"lat":36.486568,"lng":3.7106779},"southwest":{"lat":35.435902,"lng":2.2126921}}},"place_id":"ChIJ5_bvAojajhIRhpPfyJdFZPo","types":["administrative_area_level_1","political"]}],"status":"OK"}