{"results":[{"address_components":[{"long_name":"Oued Endja","short_name":"Oued Endja","types":["establishment","natural_feature"]},{"long_name":"Mila Province","short_name":"Mila Province","types":["administrative_area_level_1","political"]},{"long_name":"Algérie","short_name":"DZ","types":["country","political"]}],"formatted_address":"Oued Endja, Algérie","geometry":{"bounds":{"northeast":{"lat":36.5223805,"lng":6.209559400000001},"southwest":{"lat":36.5214567,"lng":6.208937499999999}},"location":{"lat":36.5219186,"lng":6.209248499999999},"location_type":"APPROXIMATE","viewport":{"northeast":{"lat":36.5232675802915,"lng":6.210597430291503},"southwest":{"lat":36.5205696197085,"lng":6.207899469708498}}},"place_id":"ChIJNdXw18kz8hIRKCOKgGmoHSM","types":["establishment","natural_feature"]}],"status":"OK"}