[{"code":12001,"w":12,"ar":"تبسة","name":"Tebessa","lng":35.4117209,"lat":8.0755254},{"code":12002,"w":12,"ar":"بئر العاتر","name":"Bir El Ater","lng":34.7546133,"lat":8.0234307},{"code":12003,"w":12,"ar":"الــشــريــعـة","name":"Cheria","lng":35.267904,"lat":7.7355765},{"code":12004,"w":12,"ar":"سطح قنطيس","name":"Stah Guentis","lng":34.9951892,"lat":7.2928362},{"code":12005,"w":12,"ar":"العوينات","name":"El Aouinet","lng":35.8685842,"lat":7.8693435},{"code":12006,"w":12,"ar":"الحويجبات","name":"Lahouidjbet","lng":35.292789,"lat":8.274572},{"code":12007,"w":12,"ar":"صفصاف الوسرة","name":"Safsaf El Ouesra","lng":34.9570976,"lat":8.1988049},{"code":12008,"w":12,"ar":"الحمامات","name":"Hammamet","lng":35.4519226,"lat":7.923867},{"code":12009,"w":12,"ar":"نقرين","name":"Negrine","lng":34.485828,"lat":7.5028466},{"code":12010,"w":12,"ar":"بــئــر مــقـدم","name":"Bir El Mokadem","lng":35.3704867,"lat":7.8005075},{"code":12011,"w":12,"ar":"الكويف","name":"El Kouif","lng":35.499565,"lat":8.3115219},{"code":12012,"w":12,"ar":"مرسط","name":"Morsott","lng":35.6694643,"lat":8.0015659},{"code":12013,"w":12,"ar":"العقلة","name":"El Ogla","lng":35.1833322,"lat":7.4579122},{"code":12014,"w":12,"ar":"بٔير الذھب","name":"Bir Dheb","lng":35.4117259,"lat":8.110545},{"code":12015,"w":12,"ar":"العقلة","name":"El Ogla","lng":35.1833322,"lat":7.4579122},{"code":12016,"w":12,"ar":"قوريقر","name":"Gorriguer","lng":35.1833322,"lat":7.4579122},{"code":12017,"w":12,"ar":"بكارية","name":"Bekkaria","lng":35.3666661,"lat":8.2412452},{"code":12018,"w":12,"ar":"بوخضرة","name":"Boukhadra","lng":35.7490236,"lat":8.0267572},{"code":12019,"w":12,"ar":"الونزة","name":"Ouenza","lng":35.9421139,"lat":8.1088536},{"code":12020,"w":12,"ar":"الماء الأبيض","name":"El Ma El Biodh","lng":35.2066339,"lat":8.1509541},{"code":12021,"w":12,"ar":"أم على","name":"Oum Ali","lng":35.0115532,"lat":8.2926392},{"code":12022,"w":12,"ar":"ثليجان","name":"Tlidjene","lng":35.1184512,"lat":7.7597808},{"code":12023,"w":12,"ar":"عين الزرقاء","name":"Ain Zerga","lng":35.6333322,"lat":8.2579122},{"code":12024,"w":12,"ar":"المريج","name":"El Meridj","lng":35.7935581,"lat":8.2175374},{"code":12025,"w":12,"ar":"بولحاف الدير","name":"Boulhaf Dyr","lng":35.4117259,"lat":8.110545},{"code":12026,"w":12,"ar":"بجن","name":"Bedjene","lng":35.3487094,"lat":7.469641},{"code":12027,"w":12,"ar":"المزرعة","name":"El Mazeraa","lng":35.4117259,"lat":8.110545},{"code":12028,"w":12,"ar":"فـــــــركـــــان","name":"Ferkane","lng":34.557943,"lat":7.3995494}]