[{"code":16001,"w":16,"ar":"الجزائر الوسطى","name":"Alger Centre","lng":36.7681618,"lat":3.0404258},{"code":16002,"w":16,"ar":"سيدي امحمد","name":"Sidi Mhamed","lng":36.759285,"lat":3.0467857},{"code":16003,"w":16,"ar":"المدنية","name":"El Madania","lng":36.7422816,"lat":3.0604942},{"code":16004,"w":16,"ar":"بلوزداد","name":"Belouizdad","lng":36.7504548,"lat":3.0639145},{"code":16005,"w":16,"ar":"باب الواد","name":"Bab El Oued","lng":36.7917802,"lat":3.0445432},{"code":16006,"w":16,"ar":"بولوغين","name":"Bologhine","lng":36.8039256,"lat":3.0296193},{"code":16007,"w":16,"ar":"القصبة","name":"Casbah","lng":36.7847303,"lat":3.0504945},{"code":16008,"w":16,"ar":"وادي قريش","name":"Oued Koriche","lng":36.7850295,"lat":3.0243678},{"code":16009,"w":16,"ar":"بير مراد رايس","name":"Bir Mourad Rais","lng":36.730271,"lat":3.0257462},{"code":16010,"w":16,"ar":"الآبيار","name":"El Biar","lng":36.7671977,"lat":3.0119382},{"code":16011,"w":16,"ar":"بوزريعة","name":"Bouzareah","lng":36.7891132,"lat":2.9938601},{"code":16012,"w":16,"ar":"بئر خادم","name":"Birkhadem","lng":36.7146375,"lat":3.0311349},{"code":16013,"w":16,"ar":"الحراش","name":"El Harrach","lng":36.7120702,"lat":3.1217531},{"code":16014,"w":16,"ar":"براقي","name":"Baraki","lng":36.6701186,"lat":3.0635219},{"code":16015,"w":16,"ar":"وادي سمار","name":"Oued Smar","lng":36.7098628,"lat":3.1596368},{"code":16016,"w":16,"ar":"بوروبة","name":"Bourouba","lng":36.7166963,"lat":3.0955372},{"code":16017,"w":16,"ar":"حسين داي","name":"Hussein Dey","lng":36.7402922,"lat":3.0914013},{"code":16018,"w":16,"ar":"القبة","name":"Kouba","lng":36.7241467,"lat":3.0598317},{"code":16019,"w":16,"ar":"باش جراح","name":"Bachedjerah","lng":36.723121,"lat":3.0940781},{"code":16020,"w":16,"ar":"الدار البيضاء","name":"Dar El Beida","lng":36.7024372,"lat":3.1766575},{"code":16021,"w":16,"ar":"باب الزوار","name":"Bab Azzouar","lng":36.7228311,"lat":3.1689279},{"code":16022,"w":16,"ar":"بن عكنون","name":"Ben Aknoun","lng":36.7571759,"lat":2.9946244},{"code":16023,"w":16,"ar":"دالي ابراهيم","name":"Dely Ibrahim","lng":36.7567281,"lat":2.962446},{"code":16024,"w":16,"ar":"الحمامات","name":"El Hammamet","lng":36.8024015,"lat":2.9559659},{"code":16025,"w":16,"ar":"الرايس حميدو","name":"Rais Hamidou","lng":36.8077359,"lat":2.9921434},{"code":16026,"w":16,"ar":"جسر قسنطينة","name":"Djasr Kasentina","lng":36.6927735,"lat":3.0610977},{"code":16027,"w":16,"ar":"المرادية","name":"El Mouradia","lng":36.7490236,"lat":3.0384439},{"code":16028,"w":16,"ar":"حيدرة","name":"Hydra","lng":36.7407683,"lat":3.0079149},{"code":16029,"w":16,"ar":"المحمدية","name":"Mohammadia","lng":36.7353224,"lat":3.1359743},{"code":16030,"w":16,"ar":"برج الكيفان","name":"Bordj El Kiffan","lng":36.7533604,"lat":3.1868338},{"code":16031,"w":16,"ar":"المقرية","name":"El Magharia","lng":36.7305475,"lat":3.1026854},{"code":16032,"w":16,"ar":"بني مسوس","name":"Beni Messous","lng":36.7844574,"lat":2.9591524},{"code":16033,"w":16,"ar":"الكليتوس","name":"Les Eucalyptus","lng":36.668168,"lat":3.1306093},{"code":16034,"w":16,"ar":"بئر توتة","name":"Birtouta","lng":36.6424589,"lat":2.9745906},{"code":16035,"w":16,"ar":"تسالة المرجة","name":"Tassala El Merdja","lng":36.6277781,"lat":2.8848547},{"code":16036,"w":16,"ar":"أولاد الشبل","name":"Ouled Chebel","lng":36.6082831,"lat":2.9737753},{"code":16037,"w":16,"ar":"سيدي موسى","name":"Sidi Moussa","lng":36.6162931,"lat":3.0682748},{"code":16038,"w":16,"ar":"عين طاية","name":"Ain Taya","lng":36.7880614,"lat":3.2742797},{"code":16039,"w":16,"ar":"برج البحري","name":"Bordj El Bahri","lng":36.7880016,"lat":3.2321689},{"code":16040,"w":16,"ar":"المرسى","name":"Marsa","lng":36.8081013,"lat":3.2263432},{"code":16041,"w":16,"ar":"هراوة","name":"Haraoua","lng":36.7726194,"lat":3.3006834},{"code":16042,"w":16,"ar":"رويبة","name":"Rouiba","lng":36.7375877,"lat":3.2491683},{"code":16043,"w":16,"ar":"الرغاية","name":"Reghaia","lng":36.7538466,"lat":3.312152},{"code":16044,"w":16,"ar":"عين بنيان","name":"Ain Benian","lng":36.7941279,"lat":2.9099606},{"code":16045,"w":16,"ar":"سطاوالي","name":"Staoueli","lng":36.7426531,"lat":2.8372776},{"code":16046,"w":16,"ar":"زرالدة","name":"Zeralda","lng":36.6995503,"lat":2.8049892},{"code":16047,"w":16,"ar":"محالمة","name":"Mahelma","lng":36.6721514,"lat":2.8158789},{"code":16048,"w":16,"ar":"رحمانية","name":"Rahmania","lng":36.6805606,"lat":2.8805201},{"code":16049,"w":16,"ar":"سويدانية","name":"Souidania","lng":36.7112067,"lat":2.8684395},{"code":16050,"w":16,"ar":"شراقة","name":"Cheraga","lng":36.7596098,"lat":2.8933198},{"code":16051,"w":16,"ar":"أولاد فايت","name":"Ouled Fayet","lng":36.725135,"lat":2.9078787},{"code":16052,"w":16,"ar":"العاشور","name":"El Achour","lng":36.7269712,"lat":2.9530471},{"code":16053,"w":16,"ar":"درارية","name":"Draria","lng":36.7132847,"lat":2.9677778},{"code":16054,"w":16,"ar":"دويرة","name":"Douera","lng":36.6681547,"lat":2.8979868},{"code":16055,"w":16,"ar":"بابا حسن","name":"Baba Hassen","lng":36.6959627,"lat":2.9591094},{"code":16056,"w":16,"ar":"خرايسية","name":"Khracia","lng":36.6691421,"lat":2.9639691},{"code":16057,"w":16,"ar":"السحاولة","name":"Saoula","lng":36.6866758,"lat":3.0056614}]