[{"code":26001,"w":26,"ar":"المدية","name":"Medea","lng":36.2838204,"lat":2.7028058},{"code":26002,"w":26,"ar":"وزرة","name":"Ouzera","lng":36.2615351,"lat":2.8073906},{"code":26003,"w":26,"ar":"أولاد معرف","name":"Ouled Maaref","lng":35.7948583,"lat":2.9102508},{"code":26004,"w":26,"ar":"عين بوسيف","name":"Ain Boucif","lng":35.8347645,"lat":3.0031194},{"code":26005,"w":26,"ar":"العيساوية","name":"Aissaouia","lng":36.4109256,"lat":3.1566785},{"code":26006,"w":26,"ar":"أولاد دايد","name":"Ouled Deide","lng":36.1013316,"lat":2.9097357},{"code":26007,"w":26,"ar":"العمارية","name":"El Omaria","lng":36.3025098,"lat":2.9355786},{"code":26008,"w":26,"ar":"دراڨ","name":"Derrag","lng":35.8431534,"lat":2.2165241},{"code":26009,"w":26,"ar":"القلب الكبير","name":"El Guelbelkebir","lng":36.2477512,"lat":3.3416865},{"code":26010,"w":26,"ar":"بوعيش","name":"Bouaiche","lng":35.6097793,"lat":2.1731367},{"code":26011,"w":26,"ar":"مزغنة","name":"Mezerena","lng":36.3467956,"lat":3.2758115},{"code":26012,"w":26,"ar":"أولاد إبراهيم","name":"Ouled Brahim","lng":36.2195223,"lat":2.8815053},{"code":26013,"w":26,"ar":"تيزي المهدي","name":"Tizi Mahdi","lng":36.2131052,"lat":2.7286213},{"code":26014,"w":26,"ar":"سيدي زيان","name":"Sidi Ziane","lng":36.0275429,"lat":3.1710122},{"code":26015,"w":26,"ar":"تمزڨيدة","name":"Tamesguida","lng":36.3206865,"lat":2.6122974},{"code":26016,"w":26,"ar":"الحمدانية","name":"El Hamdania","lng":36.3465239,"lat":2.7878641},{"code":26017,"w":26,"ar":"الكاف الأخضر","name":"Kef Lakhdar","lng":35.9218925,"lat":3.1958172},{"code":26018,"w":26,"ar":"شلالة العذاورة","name":"Chelalet El Adhaoura","lng":35.9605086,"lat":3.3358071},{"code":26019,"w":26,"ar":"بوسكن","name":"Bouskene","lng":36.1950571,"lat":3.1348775},{"code":26020,"w":26,"ar":"الربعية","name":"Rebaia","lng":36.0223957,"lat":3.0759976},{"code":26021,"w":26,"ar":"بوشراحيل","name":"Bouchrahil","lng":36.2735556,"lat":3.1350492},{"code":26022,"w":26,"ar":"أولاد هلال","name":"Ouled Hellal","lng":36.0034964,"lat":2.3924341},{"code":26023,"w":26,"ar":"تافراوت","name":"Tafraout","lng":35.9953336,"lat":3.2743524},{"code":26024,"w":26,"ar":"بعطة","name":"Baata","lng":36.3720772,"lat":3.059561},{"code":26025,"w":26,"ar":"بوغار","name":"Boghar","lng":35.9371699,"lat":2.6326821},{"code":26026,"w":26,"ar":"سيدي نعمان","name":"Sidi Naamane","lng":36.2654589,"lat":3.0135987},{"code":26027,"w":26,"ar":"أولاد بوعشرة","name":"Ouled Bouachra","lng":36.0987018,"lat":2.6346133},{"code":26028,"w":26,"ar":"سيدي زهار","name":"Sidi Zahar","lng":36.0709876,"lat":3.2656834},{"code":26029,"w":26,"ar":"وادي حربيل","name":"Oued Harbil","lng":36.2397747,"lat":2.5734161},{"code":26030,"w":26,"ar":"بن شكاو","name":"Benchicao","lng":36.1913329,"lat":2.7682088},{"code":26031,"w":26,"ar":"سيدي دامد","name":"Sidi Damed","lng":35.8219378,"lat":3.2306644},{"code":26032,"w":26,"ar":"عزيز","name":"Aziz","lng":35.7544258,"lat":2.2227155},{"code":26033,"w":26,"ar":"السواڨي","name":"Souagui","lng":36.1114893,"lat":3.1635449},{"code":26034,"w":26,"ar":"الزبيرية","name":"Zoubiria","lng":36.065692,"lat":2.7869199},{"code":26035,"w":26,"ar":"قصر البخاري","name":"Ksar El Boukhari","lng":35.8750361,"lat":2.6861545},{"code":26036,"w":26,"ar":"العزيزية","name":"El Azizia","lng":36.3151797,"lat":3.4549421},{"code":26037,"w":26,"ar":"جواب","name":"Djouab","lng":36.1117003,"lat":3.3535741},{"code":26038,"w":26,"ar":"الشهبونية","name":"Chahbounia","lng":35.5846723,"lat":2.4968901},{"code":26039,"w":26,"ar":"مغراوة","name":"Meghraoua","lng":36.3822217,"lat":3.4680723},{"code":26040,"w":26,"ar":"شنيڨل","name":"Cheniguel","lng":35.9572465,"lat":3.4658406},{"code":26041,"w":26,"ar":"عين القصير","name":"Ain Ouksir","lng":35.7760055,"lat":3.3282462},{"code":26042,"w":26,"ar":"أم الجليل","name":"Oum El Djalil","lng":35.8304434,"lat":2.6069329},{"code":26043,"w":26,"ar":"عوامري","name":"Ouamri","lng":36.2537814,"lat":2.4798606},{"code":26044,"w":26,"ar":"سى المحجوب","name":"Si Mahdjoub","lng":36.1691158,"lat":2.7172917},{"code":26045,"w":26,"ar":"ثلاثة الدوائر","name":"Tlatet Eddouair","lng":35.9963494,"lat":2.8731719},{"code":26046,"w":26,"ar":"بني سليمان","name":"Beni Slimane","lng":36.2181313,"lat":3.2412217},{"code":26047,"w":26,"ar":"البرواڨية","name":"Berrouaghia","lng":36.1528037,"lat":2.8436539},{"code":26048,"w":26,"ar":"سغوان","name":"Seghouane","lng":35.9968593,"lat":2.8356717},{"code":26049,"w":26,"ar":"المفاتحة","name":"Meftaha","lng":35.8821773,"lat":null},{"code":26050,"w":26,"ar":"ميهوب","name":"Mihoub","lng":36.3861353,"lat":3.3691094},{"code":26051,"w":26,"ar":"بوغزول","name":"Boughezoul","lng":35.6795297,"lat":2.6264943},{"code":26052,"w":26,"ar":"تابلاط","name":"Tablat","lng":36.4231476,"lat":3.2734726},{"code":26053,"w":26,"ar":"فج الحوضين","name":"Deux Bassins","lng":36.4676678,"lat":3.2670586},{"code":26054,"w":26,"ar":"ذراع السمار","name":"Draa Essamar","lng":36.2689828,"lat":2.6257727},{"code":26055,"w":26,"ar":"سيدي الربيع","name":"Sidi Errabia","lng":36.282548,"lat":3.2951253},{"code":26056,"w":26,"ar":"بئر بن العابد","name":"Bir Ben Laabed","lng":36.1905774,"lat":3.3408711},{"code":26057,"w":26,"ar":"العوينات","name":"El Ouinet","lng":35.8638348,"lat":2.9963896},{"code":26058,"w":26,"ar":"أولاد عنتر","name":"Ouled Antar","lng":35.9546472,"lat":2.5264159},{"code":26059,"w":26,"ar":"بوعيشون","name":"Bouaichoune","lng":36.1351828,"lat":2.5703691},{"code":26060,"w":26,"ar":"حناشة","name":"Hannacha","lng":36.1693058,"lat":2.5216172},{"code":26061,"w":26,"ar":"سدراية","name":"Sedraia","lng":36.2330914,"lat":3.4389756},{"code":26062,"w":26,"ar":"مجبر","name":"Medjebar","lng":35.9562974,"lat":2.7541324},{"code":26063,"w":26,"ar":"خمس جوامع","name":"Khams Djouamaa","lng":36.1478178,"lat":3.0538534},{"code":26064,"w":26,"ar":"سانڨ","name":"Saneg","lng":35.8406053,"lat":2.760999}]