[{"code":29001,"w":29,"ar":"مـعـسـكـر","name":"Mascara","lng":35.3185,"lat":0.1511},{"code":29002,"w":29,"ar":"بوحنيفية","name":"Bou Hanifia","lng":35.2512,"lat":-0.0494},{"code":29003,"w":29,"ar":"تيزي","name":"Tizi","lng":35.2512,"lat":0.0714},{"code":29004,"w":29,"ar":"حسين","name":"Hacine","lng":35.3969,"lat":-0.0055},{"code":29005,"w":29,"ar":"ماوسة","name":"Maoussa","lng":35.314,"lat":0.2472},{"code":29006,"w":29,"ar":"تيغنيف","name":"Teghennif","lng":35.3521,"lat":0.3323},{"code":29007,"w":29,"ar":"الهاشم","name":"El Hachem","lng":35.3028,"lat":0.4834},{"code":29008,"w":29,"ar":"سيدي قادة","name":"Sidi Kada","lng":35.2692,"lat":0.3488},{"code":29009,"w":29,"ar":"زلماطة","name":"Zelmata","lng":35.2266,"lat":0.4752},{"code":29010,"w":29,"ar":"واد الأبطال","name":"Oued El Abtal","lng":35.3924,"lat":0.6894},{"code":29011,"w":29,"ar":"عين فراح","name":"Ain Ferah","lng":35.3162,"lat":0.7828},{"code":29012,"w":29,"ar":"غريس","name":"Ghriss","lng":35.1839,"lat":0.162},{"code":29013,"w":29,"ar":"فروحة","name":"Froha","lng":35.24,"lat":0.1263},{"code":29014,"w":29,"ar":"مطمور","name":"Matemore","lng":35.2624,"lat":0.2142},{"code":29015,"w":29,"ar":"ماقضة","name":"Makdha","lng":35.1076,"lat":0.2966},{"code":29016,"w":29,"ar":"سيدي بوسعيد","name":"Sidi Boussaid","lng":35.2266,"lat":0.2966},{"code":29017,"w":29,"ar":"البرج","name":"El Bordj","lng":35.4528,"lat":0.3021},{"code":29018,"w":29,"ar":"عين فكان","name":"Ain Fekan","lng":35.1615,"lat":-0.0027},{"code":29019,"w":29,"ar":"بنيان","name":"Benian","lng":35.0356,"lat":0.2307},{"code":29020,"w":29,"ar":"خلوية","name":"Khalouia","lng":35.3991,"lat":0.2966},{"code":29021,"w":29,"ar":"المناور","name":"El Menaouer","lng":35.4797,"lat":0.4037},{"code":29022,"w":29,"ar":"واد التاغية","name":"Oued Taria","lng":35.0514,"lat":0.0879},{"code":29023,"w":29,"ar":"عوف","name":"Aouf","lng":35.0334,"lat":0.3571},{"code":29024,"w":29,"ar":"عين فارس","name":"Ain Fares","lng":35.417,"lat":0.2444},{"code":29025,"w":29,"ar":"عين فراس","name":"Ain Frass","lng":35.1255,"lat":-0.1511},{"code":29026,"w":29,"ar":"سيڨ","name":"Sig","lng":35.4685,"lat":-0.184},{"code":29027,"w":29,"ar":"عقاز","name":"Oggaz","lng":35.502,"lat":-0.2664},{"code":29028,"w":29,"ar":"العلايمية","name":"Alaimia","lng":35.6115,"lat":-0.2197},{"code":29029,"w":29,"ar":"القعدة","name":"El Gaada","lng":35.4685,"lat":-0.184},{"code":29030,"w":29,"ar":"زھانة","name":"Zahana","lng":35.4551,"lat":-0.412},{"code":29031,"w":29,"ar":"المحمدية","name":"Mohammadia","lng":35.5266,"lat":0.0687},{"code":29032,"w":29,"ar":"سيدي عبد المومن","name":"Sidi Abdelmoumene","lng":35.5713,"lat":0.0522},{"code":29033,"w":29,"ar":"فرقيق","name":"Ferraguig","lng":35.4685,"lat":0.1538},{"code":29034,"w":29,"ar":"الغمري","name":"El Ghomri","lng":35.6205,"lat":0.2005},{"code":29035,"w":29,"ar":"سجرارة","name":"Sedjerara","lng":35.6138,"lat":0.3433},{"code":29036,"w":29,"ar":"مقطع الدوز","name":"Moctadouz","lng":35.5356,"lat":-0.0494},{"code":29037,"w":29,"ar":"بوهني","name":"Bou Henni","lng":35.4976,"lat":-0.0851},{"code":29038,"w":29,"ar":"القيطنة","name":"Guettena","lng":35.3207,"lat":-0.2032},{"code":29039,"w":29,"ar":"المامونية","name":"El Mamounia","lng":35.3611,"lat":0.1401},{"code":29040,"w":29,"ar":"الكرط","name":"El Keurt","lng":35.3162,"lat":0.0906},{"code":29041,"w":29,"ar":"غروس","name":"Gharrous","lng":35.1323,"lat":0.401},{"code":29042,"w":29,"ar":"ڤرجوم","name":"Gherdjoum","lng":35.1143,"lat":0.0714},{"code":29043,"w":29,"ar":"الشرفة","name":"Chorfa","lng":35.3678,"lat":-0.2444},{"code":29044,"w":29,"ar":"رأس العين عميروش","name":"Ras Ain Amirouche","lng":35.5289,"lat":-0.2115},{"code":29045,"w":29,"ar":"نسموط","name":"Nesmot","lng":35.1862,"lat":0.3845},{"code":29046,"w":29,"ar":"سيدي عبد الجبار","name":"Sidi Abdeldjebar","lng":35.379,"lat":0.5246},{"code":29047,"w":29,"ar":"سحايلية","name":"Sehailia","lng":35.4484,"lat":0.3818}]