[{"code":3001,"w":3,"ar":"الأغواط","name":"Laghouat","lng":33.7939523,"lat":2.8368501},{"code":3002,"w":3,"ar":"قصر الحيران","name":"Ksar El Hirane","lng":33.7855481,"lat":3.119366},{"code":3003,"w":3,"ar":"بن ناصر بن شهرة","name":"Benacer Ben Chohra","lng":33.7522913,"lat":2.9939138},{"code":3004,"w":3,"ar":"سيدي مخلوف","name":"Sidi Makhlouf","lng":34.1276242,"lat":3.0060262},{"code":3005,"w":3,"ar":"حاسي دلاعة","name":"Hassi Delaa","lng":33.4154299,"lat":3.5410309},{"code":3006,"w":3,"ar":"حاسي الرمل","name":"Hassi R'Mel","lng":32.9412958,"lat":3.2443135},{"code":3007,"w":3,"ar":"عــيــن مـــاضــي","name":"Ain Mahdi","lng":33.7955179,"lat":2.2924947},{"code":3008,"w":3,"ar":"تاجموت","name":"Tadjmout","lng":33.8376241,"lat":2.5234705},{"code":3009,"w":3,"ar":"الخنق","name":"El Kheneg","lng":33.7441108,"lat":2.7841758},{"code":3010,"w":3,"ar":"قلتة سيدي سعد","name":"Gueltat Sidi Saad","lng":34.2983511,"lat":1.9323492},{"code":3011,"w":3,"ar":"عين سيدي علي","name":"Ain Sidi Ali","lng":34.1666661,"lat":1.5412452},{"code":3012,"w":3,"ar":"بيضاء","name":"Beidha","lng":33.7873735,"lat":2.8829115},{"code":3013,"w":3,"ar":"بريدة","name":"Brida","lng":33.9495922,"lat":1.7465471},{"code":3014,"w":3,"ar":"الغيشة","name":"El Ghicha","lng":33.9297719,"lat":2.1396303},{"code":3015,"w":3,"ar":"الحاج المشري","name":"Hadj Mechri","lng":33.9572842,"lat":1.5908605},{"code":3016,"w":3,"ar":"سبقاق","name":"Sebgag","lng":34.0285379,"lat":1.9293458},{"code":3017,"w":3,"ar":"تاويالة","name":"Taouiala","lng":33.8715595,"lat":1.8530845},{"code":3018,"w":3,"ar":"تاجرونة","name":"Tadjrouna","lng":33.5036312,"lat":2.0924622},{"code":3019,"w":3,"ar":"أفلو","name":"Aflou","lng":34.1121156,"lat":2.0835167},{"code":3020,"w":3,"ar":"العسافية","name":"El Assafia","lng":33.8269722,"lat":2.9816293},{"code":3021,"w":3,"ar":"وادي مرة","name":"Oued Morra","lng":34.1666661,"lat":2.3079121},{"code":3022,"w":3,"ar":"وادي مزي","name":"Oued M'Zi","lng":33.9410427,"lat":2.4231133},{"code":3023,"w":3,"ar":"الهوارية","name":"El Haouaita","lng":37.0505755,"lat":10.9904863},{"code":3024,"w":3,"ar":"سيدي بوزيد","name":"Sidi Bouzid","lng":35.0363883,"lat":9.4595281}]