[{"code":39001,"w":39,"ar":"الوادي","name":"El Oued","lng":33.3018,"lat":6.8665},{"code":39002,"w":39,"ar":"رباح","name":"Robbah","lng":33.2146,"lat":6.9104},{"code":39003,"w":39,"ar":"وادى العلندة","name":"Oued El Alenda","lng":33.164,"lat":6.7566},{"code":39004,"w":39,"ar":"البياضة","name":"Bayadha","lng":33.2697,"lat":6.9159},{"code":39005,"w":39,"ar":"النخلة","name":"Nakhla","lng":33.2123,"lat":6.9516},{"code":39006,"w":39,"ar":"ڨمار","name":"Guemar","lng":33.428,"lat":6.7978},{"code":39007,"w":39,"ar":"كوينين","name":"Kouinine","lng":33.3386,"lat":6.8253},{"code":39008,"w":39,"ar":"الرڨيبة","name":"Reguiba","lng":33.499,"lat":6.7126},{"code":39009,"w":39,"ar":"الحمراية","name":"Hamraia","lng":34.047,"lat":6.2292},{"code":39010,"w":39,"ar":"تغزوت","name":"Taghzout","lng":33.4097,"lat":6.795},{"code":39011,"w":39,"ar":"الدبيلة","name":"Debila","lng":33.4418,"lat":6.9379},{"code":39012,"w":39,"ar":"بلدية حساني عبد الكريم","name":"Hassani Abdelkrim","lng":33.412,"lat":6.8939},{"code":39013,"w":39,"ar":"حاسى خليفة","name":"Hassi Khelifa","lng":33.5357,"lat":7.0285},{"code":39014,"w":39,"ar":"طالب العربي","name":"Taleb Larbi","lng":33.6615,"lat":7.5174},{"code":39015,"w":39,"ar":"دوار الماء","name":"Douar El Ma","lng":33.1962,"lat":7.3746},{"code":39016,"w":39,"ar":"سيدي عون","name":"Sidi Aoun","lng":33.4761,"lat":6.9022},{"code":39017,"w":39,"ar":"تريفاوى","name":"Trifaoui","lng":33.3569,"lat":6.9351},{"code":39018,"w":39,"ar":"المڨرن","name":"Magrane","lng":33.5174,"lat":6.9489},{"code":39019,"w":39,"ar":"بن ڨشة","name":"Beni Guecha","lng":33.9331,"lat":7.3361},{"code":39020,"w":39,"ar":"أورماس","name":"Ourmas","lng":33.3477,"lat":6.7813},{"code":39021,"w":39,"ar":"سطيل","name":"Still","lng":34.1948,"lat":5.9134},{"code":39022,"w":39,"ar":"مرارة","name":"Mrara","lng":33.5883,"lat":5.2872},{"code":39023,"w":39,"ar":"سيدي خليل","name":"Sidi Khellil","lng":33.7734,"lat":5.9601},{"code":39024,"w":39,"ar":"تندلة","name":"Tendla","lng":33.6112,"lat":6.0342},{"code":39025,"w":39,"ar":"العقلة","name":"El Ogla","lng":33.1801,"lat":6.9461},{"code":39026,"w":39,"ar":"مية ونسة","name":"Mih Ouansa","lng":33.1318,"lat":6.7044},{"code":39027,"w":39,"ar":"المغير","name":"El Mghair","lng":33.8852,"lat":5.9244},{"code":39028,"w":39,"ar":"جامعة","name":"Djamaa","lng":33.467,"lat":5.9903},{"code":39029,"w":39,"ar":"أم الطيور","name":"Oum Touyour","lng":34.0879,"lat":5.8337},{"code":39030,"w":39,"ar":"سيدي عمران","name":"Sidi Amrane","lng":33.4303,"lat":6.0123}]