[{"code":41001,"w":41,"ar":"سوق أهراس","name":"Souk Ahras","lng":36.2232,"lat":7.9541},{"code":41002,"w":41,"ar":"سدراتة","name":"Sedrata","lng":36.0658,"lat":7.5311},{"code":41003,"w":41,"ar":"الحنانشة","name":"Hanancha","lng":36.1545,"lat":7.8333},{"code":41004,"w":41,"ar":"المشروحة","name":"Mechroha","lng":36.2941,"lat":7.836},{"code":41005,"w":41,"ar":"أولاد ادريس","name":"Ouled Driss","lng":36.2875,"lat":8.0173},{"code":41006,"w":41,"ar":"تيفاش","name":"Tiffech","lng":36.0924,"lat":7.6987},{"code":41007,"w":41,"ar":"الزعرورية","name":"Zaarouria","lng":36.1634,"lat":7.9568},{"code":41008,"w":41,"ar":"تاورة","name":"Taoura","lng":36.1057,"lat":8.042},{"code":41009,"w":41,"ar":"الدريعة","name":"Drea","lng":36.0524,"lat":7.8827},{"code":41010,"w":41,"ar":"الحدادة","name":"Haddada","lng":36.1678,"lat":8.3386},{"code":41011,"w":41,"ar":"لخضارة","name":"Khedara","lng":36.221,"lat":8.3167},{"code":41012,"w":41,"ar":"المراهنة","name":"Merahna","lng":36.1345,"lat":8.1738},{"code":41013,"w":41,"ar":"أولاد مؤمن","name":"Ouled Moumen","lng":36.3472,"lat":8.399},{"code":41014,"w":41,"ar":"بئر بوحوش","name":"Bir Bouhouche","lng":35.9858,"lat":7.468},{"code":41015,"w":41,"ar":"مداوروش","name":"Mdaourouche","lng":36.0124,"lat":7.8195},{"code":41016,"w":41,"ar":"أم العظائم","name":"Oum El Adhaim","lng":35.9702,"lat":7.6025},{"code":41017,"w":41,"ar":"عين الزانة","name":"Ain Zana","lng":36.3384,"lat":8.1903},{"code":41018,"w":41,"ar":"عين السلطان","name":"Ain Soltane","lng":36.1146,"lat":7.3691},{"code":41019,"w":41,"ar":"ويلان","name":"Quillen","lng":36.2653,"lat":8.1216},{"code":41020,"w":41,"ar":"سيدي فرج","name":"Sidi Fredj","lng":36.0902,"lat":8.1958},{"code":41021,"w":41,"ar":"سافل الويدان","name":"Safel El Ouiden","lng":35.9213,"lat":7.4625},{"code":41022,"w":41,"ar":"الرقوبة","name":"Ragouba","lng":36.0191,"lat":7.7179},{"code":41023,"w":41,"ar":"خميسة","name":"Khemissa","lng":36.1257,"lat":7.6602},{"code":41024,"w":41,"ar":"وادى الكبريت","name":"Oued Keberit","lng":35.8701,"lat":7.9156},{"code":41025,"w":41,"ar":"ترقالت","name":"Terraguelt","lng":35.839,"lat":7.5613},{"code":41026,"w":41,"ar":"الزوابى","name":"Zouabi","lng":36.0524,"lat":7.4432}]