[{"code":45001,"w":45,"ar":"النــعـامـة","name":"Naama","lng":33.195,"lat":-0.3131},{"code":45002,"w":45,"ar":"مشرية","name":"Mechria","lng":33.4841,"lat":-0.2829},{"code":45003,"w":45,"ar":"عين الصفراء","name":"Ain Sefra","lng":32.6879,"lat":-0.585},{"code":45004,"w":45,"ar":"تيوت","name":"Tiout","lng":32.7041,"lat":-0.4202},{"code":45005,"w":45,"ar":"صفيصيفة","name":"Sfissifa","lng":32.6648,"lat":-0.8679},{"code":45006,"w":45,"ar":"مغرار","name":"Moghrar","lng":32.4495,"lat":-0.5795},{"code":45007,"w":45,"ar":"عسلة","name":"Assela","lng":32.9372,"lat":-0.0769},{"code":45008,"w":45,"ar":"جنين بورزق","name":"Djeniane Bourzeg","lng":32.3057,"lat":-0.8047},{"code":45009,"w":45,"ar":"عين بن خليل","name":"Ain Ben Khelil","lng":33.2226,"lat":-0.7635},{"code":45010,"w":45,"ar":"مكمن بن عمر","name":"Makman Ben Amer","lng":33.6512,"lat":-0.7278},{"code":45011,"w":45,"ar":"قصدير","name":"Kasdir","lng":33.6443,"lat":-1.3596},{"code":45012,"w":45,"ar":"البيوض","name":"El Biod","lng":33.6969,"lat":-0.1346}]