[{"code":46001,"w":46,"ar":"عـيـن تـمـوشـنـت","name":"Ain Temouchent","lng":35.2254,"lat":-1.1398},{"code":46002,"w":46,"ar":"شعبة اللحم","name":"Chaabet El Ham","lng":35.2703,"lat":-1.1014},{"code":46003,"w":46,"ar":"عين الكيحل","name":"Ain Kihal","lng":35.1401,"lat":-1.1948},{"code":46004,"w":46,"ar":"حمام بو حجر","name":"Hammam Bouhadjar","lng":35.3151,"lat":-0.9695},{"code":46005,"w":46,"ar":"بوزجار","name":"Bou Zedjar","lng":35.5099,"lat":-1.1673},{"code":46006,"w":46,"ar":"وادى برقش","name":"Oued Berkeche","lng":35.1581,"lat":-0.9833},{"code":46007,"w":46,"ar":"أغلال","name":"Aghlal","lng":35.1356,"lat":-1.0684},{"code":46008,"w":46,"ar":"تارقة","name":"Terga","lng":35.3532,"lat":-1.1783},{"code":46009,"w":46,"ar":"عين الاربعاء","name":"Ain El Arbaa","lng":35.342,"lat":-0.8817},{"code":46010,"w":46,"ar":"تامزوغة","name":"Tamzoura","lng":35.3443,"lat":-0.6564},{"code":46011,"w":46,"ar":"شنتوف","name":"Chentouf","lng":35.2389,"lat":-1.03},{"code":46012,"w":46,"ar":"سيدي بن عدة","name":"Sidi Ben Adda","lng":35.2411,"lat":-1.181},{"code":46013,"w":46,"ar":"عقب الليل","name":"Aoubellil","lng":35.0705,"lat":-0.9915},{"code":46014,"w":46,"ar":"المالح","name":"El Malah","lng":35.3286,"lat":-1.0931},{"code":46015,"w":46,"ar":"سيدي بومدين","name":"Sidi Boumediene","lng":35.2882,"lat":-0.8926},{"code":46016,"w":46,"ar":"وادى الصباح","name":"Oued Sabah","lng":35.3084,"lat":-0.8102},{"code":46017,"w":46,"ar":"أولاد بوجمعة","name":"Ouled Boudjemaa","lng":35.4092,"lat":-1.192},{"code":46018,"w":46,"ar":"عين الطلبة","name":"Ain Tolba","lng":35.1828,"lat":-1.2497},{"code":46019,"w":46,"ar":"العامرية","name":"El Amria","lng":35.4607,"lat":-1.0162},{"code":46020,"w":46,"ar":"حاسى الغلة","name":"Hassi El Ghella","lng":35.389,"lat":-1.0519},{"code":46021,"w":46,"ar":"الحساسنة","name":"Hassasna","lng":35.2075,"lat":-0.986},{"code":46022,"w":46,"ar":"أولاد الكيحل","name":"Ouled Kihal","lng":35.3039,"lat":-1.236},{"code":46023,"w":46,"ar":"بني صاف","name":"Beni Saf","lng":35.2366,"lat":-1.3843},{"code":46024,"w":46,"ar":"سيدي الصافي","name":"Sidi Safi","lng":35.2165,"lat":-1.3129},{"code":46025,"w":46,"ar":"ولهاصة الغرابة","name":"Oulhaca El Gheraba","lng":35.1671,"lat":-1.5051},{"code":46026,"w":46,"ar":"سيدي وريلش","name":"Sidi Ouriache","lng":35.1244,"lat":-1.5051},{"code":46027,"w":46,"ar":"الأمير عبد القادر","name":"El Emir Abdelkader","lng":35.1603,"lat":-1.4035},{"code":46028,"w":46,"ar":"المساعيد","name":"El Messaid","lng":35.4763,"lat":-1.1234}]