[{"code":48001,"w":48,"ar":"غيليزان","name":"Relizane","lng":35.6696,"lat":0.5493},{"code":48002,"w":48,"ar":"وادي رهيو","name":"Oued Rhiou","lng":35.9035,"lat":0.9174},{"code":48003,"w":48,"ar":"بلعسل بوزقزة","name":"Belaassel Bouzegza","lng":35.7766,"lat":0.4999},{"code":48004,"w":48,"ar":"سيدي سعادة","name":"Sidi Saada","lng":35.6227,"lat":0.206},{"code":48005,"w":48,"ar":"أولاد يعيش","name":"Ouled Aiche","lng":35.7788,"lat":0.9998},{"code":48006,"w":48,"ar":"سيدي لزرق","name":"Sidi Lazreg","lng":35.5803,"lat":0.7745},{"code":48007,"w":48,"ar":"الحمادنة","name":"El Hamadna","lng":35.8367,"lat":0.7498},{"code":48008,"w":48,"ar":"سيدي امحمد بن علي","name":"Sidi Mhamed Ben Ali","lng":36.0791,"lat":0.8432},{"code":48009,"w":48,"ar":"مديونة","name":"Mediouna","lng":36.0524,"lat":0.7498},{"code":48010,"w":48,"ar":"سيدي خطاب","name":"Sidi Khettab","lng":35.8479,"lat":0.5109},{"code":48011,"w":48,"ar":"عمي موسى","name":"Ammi Moussa","lng":35.8033,"lat":1.1179},{"code":48012,"w":48,"ar":"زمورة","name":"Zemmoura","lng":35.6539,"lat":0.7498},{"code":48013,"w":48,"ar":"بني درقن","name":"Beni Dergoun","lng":35.7164,"lat":0.7993},{"code":48014,"w":48,"ar":"جيديوة","name":"Djidiouia","lng":35.8657,"lat":0.8295},{"code":48015,"w":48,"ar":"القطارة","name":"El Guettar","lng":36.0236,"lat":0.8157},{"code":48016,"w":48,"ar":"الحمري","name":"Hamri","lng":36.042,"lat":-0.379},{"code":48017,"w":48,"ar":"المطمار","name":"El Matmar","lng":35.6673,"lat":0.4614},{"code":48018,"w":48,"ar":"سيدي بن عودة","name":"Sidi Mhamed Ben Aouda","lng":35.54,"lat":0.5878},{"code":48019,"w":48,"ar":"عين طارق","name":"Ain Tarek","lng":35.7164,"lat":1.1316},{"code":48020,"w":48,"ar":"وادي السلام","name":"Oued Essalem","lng":35.5155,"lat":0.9256},{"code":48021,"w":48,"ar":"ﻭﺍﺭﻳﺯﺍﻥ","name":"Ouarizane","lng":35.9813,"lat":0.8981},{"code":48022,"w":48,"ar":"مازونة","name":"Mazouna","lng":36.0635,"lat":0.8762},{"code":48023,"w":48,"ar":"قلعة","name":"Kalaa","lng":35.5177,"lat":0.3296},{"code":48024,"w":48,"ar":"عين الرحمة","name":"Ain Rahma","lng":35.5602,"lat":0.3928},{"code":48025,"w":48,"ar":"يلل","name":"Yellel","lng":35.6584,"lat":0.3543},{"code":48026,"w":48,"ar":"وادى الجمعة","name":"Oued El Djemaa","lng":35.7343,"lat":0.6812},{"code":48027,"w":48,"ar":"رمكة","name":"Ramka","lng":35.7922,"lat":1.3321},{"code":48028,"w":48,"ar":"مندس","name":"Mendes","lng":35.587,"lat":0.8624},{"code":48029,"w":48,"ar":"لحلاف","name":"Lahlef","lng":35.8301,"lat":0.9805},{"code":48030,"w":48,"ar":"بني زنتيس","name":"Beni Zentis","lng":36.048,"lat":0.6647},{"code":48031,"w":48,"ar":"سوق الحد","name":"Souk El Haad","lng":35.8924,"lat":1.2469},{"code":48032,"w":48,"ar":"دار بن عبد الله","name":"Dar Ben Abdellah","lng":35.6383,"lat":0.6866},{"code":48033,"w":48,"ar":"الحاسى","name":"El Hassi","lng":35.7075,"lat":1.0547},{"code":48034,"w":48,"ar":"حد الشقالة","name":"Had Echkalla","lng":35.616,"lat":1.1481},{"code":48035,"w":48,"ar":"بن داود","name":"Bendaoud","lng":35.6562,"lat":0.5191},{"code":48036,"w":48,"ar":"العلجة","name":"El Ouldja","lng":35.8479,"lat":1.1206},{"code":48037,"w":48,"ar":"مرجة سيدي عابد","name":"Merdja Sidi Abed","lng":36.013883,"lat":0.989746},{"code":48038,"w":48,"ar":"أولاد سيدي ميهوب","name":"Ouled Sidi Mihoub","lng":35.9752,"lat":0.6916}]