[{"code":7001,"w":7,"ar":"بسكرة","name":"Biskra","lng":34.851484,"lat":5.6546304},{"code":7002,"w":7,"ar":"أوماش","name":"Oumache","lng":34.586303,"lat":5.5181413},{"code":7003,"w":7,"ar":"البرانس","name":"Branis","lng":34.9709574,"lat":5.6412543},{"code":7004,"w":7,"ar":"شتمة","name":"Chetma","lng":34.8655388,"lat":5.7729266},{"code":7005,"w":7,"ar":"أولاد جلال","name":"Ouled Djellal","lng":34.4174639,"lat":4.9713028},{"code":7006,"w":7,"ar":"راس الميعاد","name":"Ras El Miaad","lng":34.0268001,"lat":4.1596986},{"code":7007,"w":7,"ar":"البسباس","name":"Besbes","lng":36.7204026,"lat":7.7544139},{"code":7008,"w":7,"ar":"سيدي خالد","name":"Sidi Khaled","lng":34.3845588,"lat":4.8400248},{"code":7009,"w":7,"ar":"الدوسن","name":"Doucen","lng":34.6197821,"lat":4.9863232},{"code":7010,"w":7,"ar":"أولاد رحمة","name":"Ech Chaiba","lng":34.6257746,"lat":4.5572238},{"code":7011,"w":7,"ar":"سيدي عقبة","name":"Sidi Okba","lng":34.776526,"lat":5.8344242},{"code":7012,"w":7,"ar":"مشونش","name":"Mchouneche","lng":34.9063847,"lat":5.8993044},{"code":7013,"w":7,"ar":"الحوش","name":"El Haouch","lng":34.5603287,"lat":5.8852281},{"code":7014,"w":7,"ar":"عين الناقة","name":"Ain Naga","lng":34.6508231,"lat":6.0189093},{"code":7015,"w":7,"ar":"زريبة الوادي","name":"Zeribet El Oued","lng":34.683456,"lat":6.3748921},{"code":7016,"w":7,"ar":"الفيض","name":"El Feidh","lng":34.4990192,"lat":6.1924699},{"code":7017,"w":7,"ar":"القنطرة","name":"El Kantara","lng":35.2052532,"lat":5.5062642},{"code":7018,"w":7,"ar":"عين زعطوط","name":"Ain Zaatout","lng":35.1705188,"lat":5.7860157},{"code":7019,"w":7,"ar":"لوطاية","name":"El Outaya","lng":34.9772883,"lat":5.4401959},{"code":7020,"w":7,"ar":"جمورة","name":"Djemorah","lng":35.0989288,"lat":5.6954643},{"code":7021,"w":7,"ar":"طولقة","name":"Tolga","lng":34.894129,"lat":4.9483543},{"code":7022,"w":7,"ar":"لواء","name":"Lioua","lng":34.5726359,"lat":5.224675},{"code":7023,"w":7,"ar":"لشانة","name":"Lichana","lng":34.7379403,"lat":5.3672479},{"code":7024,"w":7,"ar":"أورلال","name":"Ourlal","lng":34.563429,"lat":5.3748787},{"code":7025,"w":7,"ar":"مليلي","name":"M'lili","lng":34.5781616,"lat":5.4617608},{"code":7026,"w":7,"ar":"فوغالة","name":"Foughala","lng":34.7598362,"lat":5.2212069},{"code":7027,"w":7,"ar":"برج بن عزوز","name":"Bordj Ben Azzouz","lng":34.7281944,"lat":5.281975},{"code":7028,"w":7,"ar":"مزيرعة","name":"M'ziraa","lng":34.8853471,"lat":6.0060458},{"code":7029,"w":7,"ar":"بوشقرون","name":"Bouchagroun","lng":34.7378859,"lat":5.4169652},{"code":7030,"w":7,"ar":"مخادمة","name":"Mekhadma","lng":34.5636943,"lat":5.3092183},{"code":7031,"w":7,"ar":"الغروس","name":"El Ghrous","lng":34.7175474,"lat":5.0903931},{"code":7032,"w":7,"ar":"الحاجب","name":"El Hadjab","lng":34.7967888,"lat":5.4551949},{"code":7033,"w":7,"ar":"خنڨة سيدي ناجي","name":"Khanguet Sidinadji","lng":34.784537,"lat":6.6327354}]